[{"id":6418,"name":"Woma Badenplatz","date_verified":"2018-07-22T12:01:24.213Z","description":"Delightful spot near the Ostwall run by an elderly German, highly recommended","location":{"latitude":52.37286111111111,"longitude":15.453027777777777},"category":{"name":"Established Campground"}},{"id":10965,"name":"Camperarea Auschwitz","date_verified":"2016-08-29T09:11:57.614Z","description":"Camperarea and parking opposite of the Auschwitz museum. Price is PLN 40 for 24 hours. Showers (PLN 10 per shower) and toilets (PLN 2 per visit). Shower and toilets open between 08:00 and 18:00. Use of internet at the Information office is for free.","location":{"latitude":50.02668333333333,"longitude":19.19921666666667},"category":{"name":"Informal Campsite"}},{"id":10966,"name":"Camping Ekofarma","date_verified":"2012-01-01T00:00:00.000Z","description":"Small local campsite. Very nice spot! PLN 29 per night (2 persons/no power/showers free). The also serve breakfast here.","location":{"latitude":50.81852,"longitude":15.73758},"category":{"name":"Established Campground"}},{"id":10967,"name":"Camping Ustup","date_verified":"2015-11-29T00:00:00.000Z","description":"Basis but very clean and friendly owner. Price PLN 53 per night (2 persons/no power/free showers). McDonalds with free wifi around the corner.","location":{"latitude":49.32227,"longitude":19.9854},"category":{"name":"Established Campground"}},{"id":10968,"name":"Camperarea Wieliczka","date_verified":"2018-06-28T00:00:00.000Z","description":"Camperarea and parking near Wieliczka saltmine. Price PLN 20 per night. Shower PLN 5 per person.","location":{"latitude":49.9851,"longitude":20.05708},"category":{"name":"Established Campground"}},{"id":10969,"name":"Camping Clepardia","date_verified":"2018-08-29T00:00:00.000Z","description":"PLN 63 (for 2 persons and a car/no power). Wifi is free of charge. Camping also has washing machines. Just outside is a large public swimming pool. Camping has good connections to the city center.","location":{"latitude":50.09528,"longitude":19.94132},"category":{"name":"Established Campground"}},{"id":10970,"name":"Camping Wok","date_verified":"2022-11-17T00:00:00.000Z","description":"PLN 90 (for 2 persons + car/ no power). Very clean toilets and showers (free). Free wifi in the bar. Good connections to the city center.","location":{"latitude":52.1779,"longitude":21.1478},"category":{"name":"Established Campground"}},{"id":10971,"name":"Camping NR. 61","date_verified":"2020-06-28T19:38:14.978Z","description":"Camping on the Elblag canal. Old camping but good spot and great hot showers. PLN 51 per night (2 persons + car / no power / free showers / free wifi)","location":{"latitude":54.153416666666665,"longitude":19.394133333333333},"category":{"name":"Established Campground"}},{"id":10972,"name":"Camping Kaper","date_verified":"2015-11-29T20:08:09.315Z","description":"PLN 57 per night (2 persons + car / no power / free showers / free wifi). Camping is a surfcamping right on the beach. It can be very crowded in high season.","location":{"latitude":54.77721666666667,"longitude":18.456666666666667},"category":{"name":"Established Campground"}},{"id":10973,"name":"Camping Lesny","date_verified":"2018-06-30T00:00:00.000Z","description":"PLN 70 per night (2 pers/car/no power)\n\nFree WiFi available","location":{"latitude":54.76201666666667,"longitude":17.56511666666667},"category":{"name":"Established Campground"}},{"id":10974,"name":"Camping 24","date_verified":"2021-08-13T00:00:00.000Z","description":"PLN 50 per night (2 pers/car/no power)","location":{"latitude":53.92053333333333,"longitude":14.434633333333334},"category":{"name":"Established Campground"}},{"id":10978,"name":"Camping in Mikolajki","date_verified":"2021-09-19T08:47:32.996Z","description":"The unitedteneristi Paetschman and Pezimann stayed for one Night in Mai 2018. We  fight with millions of Mosjitos. This was terrible. in other Cases the Site ist very well. Nice People and a beautiful look over City ans Lake.","location":{"latitude":53.79555,"longitude":21.565},"category":{"name":"Established Campground"}},{"id":10981,"name":"Slowinski NP","date_verified":"2018-07-01T00:00:00.000Z","description":"Entry PLN 6 per person. Electrocar from entrance to the dunes (6km) is PLN 15 per person one way.\r\n\r\nBike rental at Entrance PLN 10 per hour/Bike","location":{"latitude":54.75415,"longitude":17.52043},"category":{"name":"Tourist Attraction"}},{"id":10983,"name":"Wolfsschanze","date_verified":"2019-08-05T00:00:00.000Z","description":"Former headquarters of Hitler. Entry is PLN 15 per person and parking PLN 10 per car (for this price you can also camp here on the parking with Electricy)\r\n\r\nFree WiFi near the Rooms for Sleeping.","location":{"latitude":54.07985,"longitude":21.49485},"category":{"name":"Informal Campsite"}},{"id":10984,"name":"Parking to Cable Car","date_verified":"2012-01-01T00:00:00.000Z","description":"Driving up there is not allowed as it is a National Park. From here you can walk or take a taxi or carriage.","location":{"latitude":49.2814,"longitude":19.96587},"category":{"name":"Tourist Attraction"}},{"id":18892,"name":"Smok Campground","date_verified":"2023-06-26T00:00:00.000Z","description":"20 euro per night for 2 in a jeep with a tent on top.","location":{"latitude":50.047941296408,"longitude":19.88010708244506},"category":{"name":"Established Campground"}},{"id":20381,"name":"U Jawora Camping","date_verified":"2016-08-13T00:00:00.000Z","description":"Quiet grassy spot by the lake. Pleasant place but old facilities","location":{"latitude":54.01956293,"longitude":23.01983746},"category":{"name":"Established Campground"}},{"id":20436,"name":"Camping 215","date_verified":"2023-07-04T20:30:13.000Z","description":"Nice clean new facilites. Big grassy shady sites but most on a bit of a slope. Pool, laundry, wifi. Close to shopping center and little lake. Some traffic noise since right next to main highway. Good stop for a night.","location":{"latitude":50.2431434,"longitude":19.04909164},"category":{"name":"Established Campground"}},{"id":21042,"name":"Lakeside near Topola","date_verified":"2019-07-14T14:22:19.811Z","description":"Wild camping on a lakeside. Some Polish also pitch their tent or park their caravan here during summer. Good spot. Fishing.","location":{"latitude":50.5033,"longitude":16.929333333333332},"category":{"name":"Wild Camping"}},{"id":21061,"name":"Camper parking from El Camp camper bussines","date_verified":"2019-04-15T17:48:28.620Z","description":"El Camp offers overnight stay for campers on their compound. It is near Krakau (Krakow) and the bus stops in front. 20 min. ride to the city center (5 Zł, you need it in coins!) The place has water and dumping facilities and also elektric for those who need it. They also have Wifi, night watch and provide a timetable of the bus and a map of Krakow. Cost are 30Zł per night.","location":{"latitude":50.034616666666665,"longitude":19.87705},"category":{"name":"Informal Campsite"}},{"id":34854,"name":"Bielzowice near cementary","date_verified":"2017-05-09T00:00:00.000Z","description":"quiet place for a night. there is water in the cementary.","location":{"latitude":50.266014872877854,"longitude":18.83951478699918},"category":{"name":"Informal Campsite"}},{"id":35710,"name":"Tramp","date_verified":"2022-07-18T00:00:00.000Z","description":"Forest Campground. Next to the see. between Misdroy and Kolberg. Away from the Ostsee rush. Modern santaries. Full serviced.","location":{"latitude":53.996565395,"longitude":14.648127874},"category":{"name":"Established Campground"}},{"id":35713,"name":"Pozegowo ","date_verified":"2019-05-01T00:00:00.000Z","description":"Just 1km to Mosina where you can find all you need.. You can swim into the lake . quiet place on the week but maybe lot of people on the weekend or holidays. good walking to do in the Wielkopolski park narodowy","location":{"latitude":52.25553351696507,"longitude":16.83316084474467},"category":{"name":"Informal Campsite"}},{"id":35714,"name":"Lake near Baniewice","date_verified":"2017-05-19T00:00:00.000Z","description":"along a forest road near a cycle path. 300m of the lake. very quiet place","location":{"latitude":53.077005913887724,"longitude":14.635807241938572},"category":{"name":"Wild Camping"}},{"id":36210,"name":"parking near a lake","date_verified":"2019-08-05T11:57:18.419Z","description":"a parking near a lake which is quiet (in may at least) ","location":{"latitude":51.06064868642076,"longitude":20.90911548458103},"category":{"name":"Informal Campsite"}},{"id":36211,"name":"baltow parking","date_verified":"2017-05-13T00:00:00.000Z","description":"parking at the city entrance. near jurapark. quiet place","location":{"latitude":52.318519177360415,"longitude":21.557579474991293},"category":{"name":"Informal Campsite"}},{"id":36351,"name":"Plaża Zamajerz","date_verified":"2017-05-22T00:00:00.000Z","description":"Parking area right at the lake with beautiful view over the lake and the nearby castle. ","location":{"latitude":49.42332518291606,"longitude":20.315118134040677},"category":{"name":"Informal Campsite"}},{"id":36845,"name":"Forest near wide Riverbank","date_verified":"2022-07-29T00:00:00.000Z","description":"200m into a forest path (4x4 would be good) there are a couple of informal fire place and nice spots to camp. very close to write river bed. good for fly fishing (permit needed). ","location":{"latitude":49.41557012,"longitude":20.11631498},"category":{"name":"Wild Camping"}},{"id":37069,"name":"Cheap Riverside Camping","date_verified":"2017-06-14T00:00:00.000Z","description":"Cheap Riverside Campground. Official Place. 6 Zl per Person and 2 Zl for a Car. Go directly to the riverside for the best places. Shower available for 5 Zl.","location":{"latitude":49.44705638,"longitude":20.42508652},"category":{"name":"Established Campground"}},{"id":39265,"name":"parking","date_verified":"2017-07-20T07:00:47.281Z","description":"a secure parking place next to the city center. 5min to walk.\r\neasy for a night. nothing special.\r\nrestaurants are in the city center. shops as well","location":{"latitude":52.25815,"longitude":21.00513},"category":{"name":"Informal Campsite"}},{"id":39615,"name":"Camping bumerang","date_verified":"2019-07-12T00:00:00.000Z","description":"A nice little campsite at a farmer's house. Many apple trees. Friendly old man speaking German.","location":{"latitude":51.92865009890117,"longitude":19.928667889926515},"category":{"name":"Established Campground"}},{"id":39736,"name":"Border between russia and poland","date_verified":"2017-07-27T09:19:39.195Z","description":"The main border with 9 lanes. Fast and easy.","location":{"latitude":54.41946,"longitude":20.06152},"category":{"name":"Customs and Immigration"}},{"id":40457,"name":"Lakeside","date_verified":"2023-08-13T00:00:00.000Z","description":"Picnic place right by the lake with little beach and dock. Many locals in the weekend, during the week, nobody. No facilities but a Dixie. has fire pits as well.\r\n\r\nInternet/cell reception very slow to not usable. 1 of 5 bars.","location":{"latitude":53.8073084,"longitude":19.8740492},"category":{"name":"Wild Camping"}},{"id":40905,"name":"Rest area","date_verified":"2017-08-12T13:21:47.528Z","description":"A rest area away from the road in the forest. Would make a nice camp spot, there's a shelter and bin but no toilet.","location":{"latitude":50.90021098968656,"longitude":20.018381495047375},"category":{"name":"Wild Camping"}},{"id":40966,"name":"Kaputy Camping","date_verified":"2017-08-27T05:37:30.394Z","description":"Clean area. They rent their big hall to a wedding so it was like trying to sleep at an open air concert. Further there is the airport: one can get no sleep at all.","location":{"latitude":52.2309639,"longitude":20.7928681},"category":{"name":"Established Campground"}},{"id":41127,"name":"Truck stop, on both sides of the road","date_verified":"2017-08-10T00:00:00.000Z","description":"Great truck stop. Free showers, free parking and clean toilets. ATM mashine at the petrolstation. ","location":{"latitude":50.25095279333205,"longitude":18.88143349440664},"category":{"name":"Informal Campsite"}},{"id":41163,"name":"Nice parking lot in the forest for camping","date_verified":"2017-08-16T00:00:00.000Z","description":"Nice parking lot in Ojcow National Park - lots of spaces, separated by trees making camping more discreet. Picnic tables. There was a portaloo but it was padlocked. We had a car plus rooftent and there was one other RV. Parking is free on weekends, around 5 zloty on weekdays. Restaurant just over the road.","location":{"latitude":50.214731,"longitude":19.815283},"category":{"name":"Informal Campsite"}},{"id":41242,"name":"Camping Tramp","date_verified":"2021-08-26T00:00:00.000Z","description":"Small busy site ideal for visiting Torun.\nA bit of train and traffic noise but not enough to keep us awake.\nWe pain 50 Zlotty for 2 adults Land Rover and camping trailer.\nCovered area with tables, hot showers and wifi. Electric hook up as standard","location":{"latitude":52.9998898,"longitude":18.5981917},"category":{"name":"Established Campground"}},{"id":41252,"name":"Agroturistik Camping","date_verified":"2021-07-12T16:35:55.338Z","description":"An absolute Oasis, beautifully kept and maintained by someone who takes pride in their site. Very friendly owner where nothing is too much trouble. \nSome tree shade and some without. \nWater and electric at most pitches.\nWashing machine available. \nWood and coals supplied foc for fires and BBQ's. \nThe owners comes round at night and lights candle lanterns all over the site that gives a wonderful atmosphere.\nAnd all for only €15 per night for 2 people with a Land Rover and camping trailer ","location":{"latitude":53.79267883026394,"longitude":22.14621009307182},"category":{"name":"Established Campground"}},{"id":41315,"name":"In the midst of the reed by the lake ","date_verified":"2019-08-15T08:21:27.000Z","description":"Lakeside spot at the pond, which despite being on the opposite side to an adventure park is very (!) quiet. \nMake sure you have bug spray and leave no trace. ","location":{"latitude":50.01500347633847,"longitude":19.41374519841691},"category":{"name":"Wild Camping"}},{"id":41669,"name":"Pole Biwakowe Nad Zalewem (Over the deluge)","date_verified":"2019-05-26T19:25:39.276Z","description":"The campsite \"Pole Biwakowe Nad Zalewem\" is hidden behind a campsite for permanent campers with mobile homes. Use the same entrance and just follow the signs to the reception. The facilities are new and absolutely clean. The site itself is green, with a lovely pond in the middle.\r\nSuper friendly, young staff. The bar offers beverages, beer and small meals at great prices.\r\nWe stayed there for two days, it was quiet and not very busy. It's perfectly located if you want to visit Auschwitz Memorial, which is approx. 20 km from the campsite.","location":{"latitude":50.12642,"longitude":19.21623},"category":{"name":"Established Campground"}},{"id":41670,"name":"Camp Park Sonata","date_verified":"2021-08-22T00:00:00.000Z","description":"Green and spacious campsite in the Masuria area, with access to a lake.\r\nFacilities are average, showers at extra costs.\r\nWe recommend to try the pierogi at the restaurant on site - they are homemade and delicious.","location":{"latitude":54.14715,"longitude":21.748},"category":{"name":"Established Campground"}},{"id":41957,"name":"Bialowieza bizon reserve parking","date_verified":"2021-08-13T00:00:00.000Z","description":"Quiet free parking lot next to the bison reserve. Plenty of space and there are some dixies. Good starting point for hikes through the forest","location":{"latitude":52.70406,"longitude":23.79523},"category":{"name":"Informal Campsite"}},{"id":42249,"name":"Elixir Hotelik Camping","date_verified":"2017-09-03T14:21:26.008Z","description":"Nice place at  a lake. with a small sand beach. ","location":{"latitude":54.0367877,"longitude":21.6992627},"category":{"name":"Established Campground"}},{"id":43289,"name":"Small Exit Next To Cemetery","date_verified":"2017-08-20T10:43:03.000Z","description":"If you need a place to spend one night next to Zakopane, it is an option. Quiet and safe, just next to cemetery.","location":{"latitude":49.34222314511364,"longitude":19.95965612122785},"category":{"name":"Informal Campsite"}},{"id":43464,"name":"near the forest","date_verified":"2017-09-24T08:16:22.893Z","description":"quiet place near trail to do in the forest","location":{"latitude":51.3840928,"longitude":22.6286238},"category":{"name":"Informal Campsite"}},{"id":43465,"name":"In the forest","date_verified":"2017-09-24T08:16:23.072Z","description":"good place to schearch muschrooms in the forest. quiet. pique nique tables and place fort fire","location":{"latitude":49.9632465,"longitude":21.8876757},"category":{"name":"Informal Campsite"}},{"id":44163,"name":"Land Serwis, British Garage","date_verified":"2017-10-05T00:00:00.000Z","description":"Large Independent Land Rover Garage with parts shop and mechanics","location":{"latitude":49.9841,"longitude":20.040765},"category":{"name":"Mechanic and Parts"}},{"id":56827,"name":"Bunker Parkplatz ","date_verified":"2018-04-11T00:00:00.000Z","description":"Big parking area near the bunker behind the harbour. Nice Restaurants","location":{"latitude":54.58578842231499,"longitude":16.8503779079922},"category":{"name":"Short-term Parking"}},{"id":60827,"name":"Eurocamping","date_verified":"2018-05-31T00:00:00.000Z","description":"Very nice camping with 42 places. all paces have electricity and water. \r\nVery clean. \r\nThere is a lake nearby with a walking path around it.","location":{"latitude":54.09315,"longitude":22.91562},"category":{"name":"Established Campground"}},{"id":60855,"name":"Akademie Muzyczna","date_verified":"2019-06-19T00:00:00.000Z","description":"Parking Lot. You must paid 6 PLN    per our. RV can stay here for the night. Near by the City. Only 400 meters. Guarded and fenced.","location":{"latitude":54.34564,"longitude":18.66191},"category":{"name":"Informal Campsite"}},{"id":61397,"name":"Gravel parking lot in Nieprusewo","date_verified":"2018-05-26T00:00:00.000Z","description":"Gravel parking lot next to the beach. Quiet at night on saturday evening.","location":{"latitude":52.38688333333333,"longitude":16.605033333333335},"category":{"name":"Wild Camping"}},{"id":61398,"name":"Parking lot in Kolaki","date_verified":"2018-05-27T00:00:00.000Z","description":"Nice parking lot next to the river in a small village. Some young people in the evening but quiet at night.","location":{"latitude":53.02153333333333,"longitude":22.377266666666667},"category":{"name":"Wild Camping"}},{"id":62722,"name":"Camping Echo","date_verified":"2023-09-21T00:00:00.000Z","description":"Small, quiet , lakeside campground. Flat, spacious, well kept and efficiently run. Barbara is very helpful with information and the camp is in a good location. The morning bread delivery is lovely!","location":{"latitude":53.967624296371795,"longitude":21.77619791152824},"category":{"name":"Established Campground"}},{"id":62900,"name":"Off the main road parking ","date_verified":"2018-05-19T00:00:00.000Z","description":"Nice little spot off the main road, it has a parking sign, so easy to spot. It has a little resting area with a few wooden bench and a shed with rubbish bins. ","location":{"latitude":52.9687172076921,"longitude":14.739872830831057},"category":{"name":"Wild Camping"}},{"id":63627,"name":"Caritas camping place","date_verified":"2018-06-30T00:00:00.000Z","description":"Old polish camp side with little old bungalows. Shower and WC are very clean. People are friendly. 50 Zł for one night/car and tent.\r\n","location":{"latitude":52.545292514295795,"longitude":21.150124183814775},"category":{"name":"Informal Campsite"}},{"id":63637,"name":"Camper Park Stogi ","date_verified":"2021-09-21T18:55:20.000Z","description":"Campsite under Trees with Grass-Stone Parking. \r\nFree WiFi on the whole Camping\r\n\r\n2pers/Camper/No Power --\u003e PLN 66.00\r\n\r\n","location":{"latitude":54.37050921,"longitude":18.73030478},"category":{"name":"Established Campground"}},{"id":63851,"name":"Forest Glade","date_verified":"2018-06-02T00:00:00.000Z","description":"Nice family-run camping near the lake. The owner, Waldemar, is very friendly. There are clean and hot showers, and you can rent a bike to go to the village.","location":{"latitude":53.68511,"longitude":22.46229},"category":{"name":"Established Campground"}},{"id":64148,"name":"\" Oberländer \" Canal with Ships over Land and Gras","date_verified":"2018-07-05T00:00:00.000Z","description":"Ticket Office for Passanger Ships at the \" Oberländer \"  Canal\r\n\r\n4,5hour Tour with a Passanger Ship and Back to Elblag with a Shuttle cost PLN 129.00 pP\r\n\r\nVery Cool. Must See !\r\n\r\nDescription: \r\n\r\nWater Canal with Passanger Ships. But the Canal has 5 different Levels. So all Ships go to a underwater Train Wagon and after go this up to the Hill with Water Power.  ","location":{"latitude":54.15772,"longitude":19.39325},"category":{"name":"Tourist Attraction"}},{"id":64326,"name":"Mamerki or Mauerwald","date_verified":"2018-07-09T00:00:00.000Z","description":"Old Bunker's and Head Quarter from the German Army while the Sovjet War. \r\nMuseum and More\r\n\r\nEntry PLN 17.00 pP and Parking PLN 5.00\r\nNo Camping possible","location":{"latitude":54.18300215,"longitude":21.64979689},"category":{"name":"Tourist Attraction"}},{"id":64328,"name":"Border between Poland and Russia","date_verified":"2018-07-10T00:00:00.000Z","description":"Smal Border between Poland and Russia. Not much Traffic. Easy and fast","location":{"latitude":54.34112,"longitude":22.29803},"category":{"name":"Customs and Immigration"}},{"id":64647,"name":"Parking spot surrounded by Forest","date_verified":"2018-07-13T00:00:00.000Z","description":"Parking Spot with picknick tables close to the street but surrounded by trees. not visible from the street. nice for a break or  a night.","location":{"latitude":51.151016443504,"longitude":15.1685268072281},"category":{"name":"Wild Camping"}},{"id":64895,"name":"Lake Swierklaniec","date_verified":"2019-06-26T00:00:00.000Z","description":"Super Beautiful Sandbeaches all around the Lake. We drove a small forest road inside and left the car about 20 m away from the beach from there small pathes lead to different beaches. just pick one. its beautiful there. everywhere firepits. but not so much firewood anymore. we left the car in the forest and put a tent at a beach. just a kind of near airport is a little disturbing.","location":{"latitude":50.414309,"longitude":18.980251},"category":{"name":"Wild Camping"}},{"id":64967,"name":"Farm camping","date_verified":"2018-07-17T00:00:00.000Z","description":"Great place, next to a Nice lake. Its about 10 euro a night for a van with 2 people, a lot of freedom to make barbecue and fire and the dogs can walk around. Next door a forrest and you can walk all the way to the See.","location":{"latitude":53.9816206321623,"longitude":14.63346619160346},"category":{"name":"Established Campground"}},{"id":65147,"name":"Poland Kaliningrad Border","date_verified":"2018-07-18T00:00:00.000Z","description":"Driving from Kaliningrad to Poland. Easy border","location":{"latitude":54.370748223787515,"longitude":20.661283861864973},"category":{"name":"Customs and Immigration"}},{"id":65507,"name":"Buch camp","date_verified":"2018-07-19T00:00:00.000Z","description":"Nice place in the forest, lot of tracks where you can camp.","location":{"latitude":53.92117843502566,"longitude":16.899229483694675},"category":{"name":"Wild Camping"}},{"id":65989,"name":"plaża w Kamieńcu Wrocławskim","date_verified":"2022-05-23T00:00:00.000Z","description":"Small lake just outside Wroclaw city, camping seems to be tolerated. Night was quite although I can imagine it gets busy on weekends as a bbq hub","location":{"latitude":51.061076768721506,"longitude":17.169782733560698},"category":{"name":"Wild Camping"}},{"id":66230,"name":"Masurischer See","date_verified":"2022-08-28T00:00:00.000Z","description":"Perfect place at lake, looks like sometimes there are many people. A place to park and access lake for locals.\r\n","location":{"latitude":53.61935,"longitude":21.500416666666666},"category":{"name":"Wild Camping"}},{"id":66335,"name":"Parking Lot at Wakeboard / Lake","date_verified":"2018-07-30T00:00:00.000Z","description":"Parking Lot overlooking small lake with wakeboarding facilities and an adjacent artificial beach. Seems to be busy on weekends. \r\nIt was our spot to get quickly into Krakow next day","location":{"latitude":50.04997759596449,"longitude":19.797243503872117},"category":{"name":"Informal Campsite"}},{"id":66593,"name":"Wyprawa 4 x 4","date_verified":"2018-08-02T00:00:00.000Z","description":"Land Cruiser and Terrain Tamer service spot, Kylon runs a great workshop here: wyprawa4x4.pl\r\nWe got oil service and BFG tire change within 2h","location":{"latitude":52.327823443387004,"longitude":20.96701461823747},"category":{"name":"Mechanic and Parts"}},{"id":66796,"name":"Wildcamping at Zalew Sulejowski","date_verified":"2019-06-01T00:00:00.000Z","description":"Long Shore with a lot space for wildcamping. Just follow the Street parallel to the sea and choose one of many forest tracks right to the shore. You can easy camp there right in front of the sea. Have a swim and maybe enjoy a beautiful sunset.","location":{"latitude":51.446928,"longitude":19.964472},"category":{"name":"Wild Camping"}},{"id":66798,"name":"Pole Namiotowe Nad Zielonym","date_verified":"2018-08-02T00:00:00.000Z","description":"Really beautiful and cheap campground. You can pay in euro aswell. Many little spots around a clean lake. Water comes out of a spring and you can fill it into bottles.. Have a swim inside of the clear water and enjoy your stay!","location":{"latitude":53.879255,"longitude":21.924264},"category":{"name":"Established Campground"}},{"id":66912,"name":"Augustow lake site","date_verified":"2020-09-23T00:00:00.000Z","description":"Big flat grassy area next to boat ramp. Some People during the day with or without boats, quiet at night. You can swimm here. \r\nShort dirt track to get here, no 4WD needed.","location":{"latitude":53.8561975,"longitude":23.0462052},"category":{"name":"Wild Camping"}},{"id":66985,"name":"Campus Domasławice","date_verified":"2022-08-29T00:00:00.000Z","description":"Large Area with many trees. Very nice site. One can rent rooms too.","location":{"latitude":51.40067666666667,"longitude":17.52247},"category":{"name":"Established Campground"}},{"id":66992,"name":"Birkenau rear entrance","date_verified":"2022-04-29T00:00:00.000Z","description":"Free, flat, clean and very calm little parking area 200m from the rear entrance to Birkenau. There is a “dry” toilet hidden in the bushes of the playground across the street. Another modern toilet block inside the park (first track to the left) 3min walk away. \r\n\r\nSome tips for visiting the Auswitz camps from this location: Birkenau camp is free and you can just walk in but need to respect visiting hours (see attached photo). Free shuttle busses run between Birkenau and Auswitz 1, but first buses FROM Birkenau only start at 10am. Walking from campspot to auswitz1 takes 20min(trough Birkenau). Auswitz 1 is free too, but you need a ticket and there are only a limited amount of tickets dispensed every hour. Come early to avoid (very) long queues. Only tiny backpacks are allowed in auswitz1(see photo), there is a luggage room(4zloty)","location":{"latitude":50.03402633131485,"longitude":19.162681130710208},"category":{"name":"Informal Campsite"}},{"id":67315,"name":"Polytechnica Sport Complex","date_verified":"2021-08-05T00:00:00.000Z","description":"Grassy campsite with some trees, completely fenced, between railways and main road. You get the key for the gate at the reception, where you can register and pay before (50 PLN all inklusive).Hot and clean showers about 100 m away in the sports building. Mo/Wed/Fri afternoon you can use the swimming hall (1,5 PLN PP). Tram to city center 150 m by foot, one way (4stops) ist 3,2PLN","location":{"latitude":54.37183708,"longitude":18.63011503},"category":{"name":"Established Campground"}},{"id":67682,"name":"Biwak site","date_verified":"2020-09-24T00:00:00.000Z","description":"Nice picnic site on grass with a wood fire and some shelters where you can stay for a night. Very quite in the forest, only one friendly guy living in a lonely house next to the place.","location":{"latitude":54.15010244,"longitude":21.83967858},"category":{"name":"Wild Camping"}},{"id":67792,"name":"Camping Bolkow","date_verified":"2021-08-30T21:34:16.000Z","description":". A lot of shade, which was welcome with over 30 degrees Celsius.\r\nVery friendly people and camping owner","location":{"latitude":50.93268288808705,"longitude":16.11675456301416},"category":{"name":"Established Campground"}},{"id":67901,"name":"Kozienice Recreation and Sports Centre","date_verified":"2018-08-14T00:00:00.000Z","description":"Campground in Kozienice. The place is situated in a nice park near a river. It is possible to rent a bungalow (in high season reservation is needed). Sanitary facilities are clean. Costs for a car, 2 people and one tent are 27 zloty per night. Wifi at the reception. ","location":{"latitude":51.595666666666666,"longitude":21.539916666666667},"category":{"name":"Established Campground"}},{"id":68652,"name":"Błędno","date_verified":"2018-08-19T00:00:00.000Z","description":"Sheds, tables, a bend of the river. Frequent rafting trips and lots of tourists during the season.\r\n---\r\nSzałasy, stoliki, zakole rzeki. W sezonie częste spływy i mnóstwo turystów.","location":{"latitude":53.70117,"longitude":18.34597},"category":{"name":"Wild Camping"}},{"id":69185,"name":"Bóbr River","date_verified":"2018-08-27T00:00:00.000Z","description":"Grassy Area for 1-2 Rigs. A river flows nearby and a fireplace is there. ","location":{"latitude":51.32548016,"longitude":15.56960171},"category":{"name":"Wild Camping"}},{"id":69302,"name":"Gogolin","date_verified":"2018-08-28T00:00:00.000Z","description":"A public community parking a few minutes away from the highway. Empty and quiet at night. People come to park here in the morning. Use the upper parking lot! A lot less activity there. Toilet building (open 7:30 to 18). Highway can be heard in the distance and there is a train station nearby.","location":{"latitude":50.492606288800474,"longitude":18.020892832445},"category":{"name":"Informal Campsite"}},{"id":69494,"name":"Open space in the wood","date_verified":"2018-08-30T00:00:00.000Z","description":"In a dense wood an open space. Very quiet but you have to drive a bit on sand roads, you don’t need a 4X4. At the and of August we heard the deers burling at night, cool!","location":{"latitude":53.88970803474438,"longitude":21.23853673229109},"category":{"name":"Wild Camping"}},{"id":69584,"name":"Kurna Chata Zaprasza","date_verified":"2018-08-30T00:00:00.000Z","description":"Kurna Chata Zaprasza. Traditional food. Very good.","location":{"latitude":51.113031666666664,"longitude":17.031645},"category":{"name":"Restaurant"}},{"id":69585,"name":"City Camping Wroclaw (Breslau)","date_verified":"2019-04-15T00:00:00.000Z","description":"Big flat area. Optimal for visiting the old impressive center of Breslau. Tram station directly at the entrance. Take line 9 or 17 to station \"Valeria Dominikanska\". Buy tickets inside with credit card (contactless). ","location":{"latitude":51.116735,"longitude":17.091966666666668},"category":{"name":"Established Campground"}},{"id":69624,"name":"Parking Lot near Auschwitz Entrance","date_verified":"2018-08-31T00:00:00.000Z","description":"Parking lots near the entrance of Auschwitz.\r\nThis Parking area is for free. it is in the beginning of a road with a sign: vehicles over 2,5to are forbidden. other Parking areas will charge you 30 - 40 Pln for the night.\r\nWe stay here for one night. nobody bother us. quite at night. Five minutes walk to the entrance.\r\nWe visit Auschwitz and Birkenau. we didn't booked the ticket before. we went to the entrance early in the morning (around 7 o'clock) and get a ticket for the day. there is a counter, on the right side of the entrance (white trailer). we didn't join a guided tour. \r\n","location":{"latitude":50.032058,"longitude":19.198727},"category":{"name":"Informal Campsite"}},{"id":69681,"name":"Parking","date_verified":"2018-09-01T00:00:00.000Z","description":"Parking With toilets. \r\n30 m off the beach. \r\nGood for one or two nights. ","location":{"latitude":54.71306908880799,"longitude":18.637496307509615},"category":{"name":"Informal Campsite"}},{"id":69746,"name":"Riverside wildcamp","date_verified":"2020-08-21T00:00:00.000Z","description":"Discrete spot on the Riverside, only a kilometer away from the main road.sheltered against the wind and not visible for others, beautiful place. A little bit noise from the mainroad.","location":{"latitude":53.77329144631864,"longitude":15.26384825819662},"category":{"name":"Wild Camping"}},{"id":69869,"name":"camp 9 nature campground","date_verified":"2020-09-26T00:00:00.000Z","description":"nice campground with a small lake (not for swimming), fireplaces, bikes for rent, between field's and tree's.\r\nwith a ample common room and a huge kitchen.\r\nnew and clean facilities with hot shower's\r\nlook for updated informations at the homepage: www.camp-9.pl\r\nplease note: camp opens from 7 am until 9 pm daily ( 1st of may to 30 th of september )\r\nreception open from 9 until 12 am and 2 until 8 pm\r\nCheck-in from 4 o'clock pm only!\r\n10 minutes walk to the next supermarket\r\nwashing machine available\r\n(4G with Orange)\r\nTarnowskie Gory is a nice city with some tourist attractions and a shopping centre around.\r\n","location":{"latitude":50.416124999999994,"longitude":18.814664999999998},"category":{"name":"Established Campground"}},{"id":69881,"name":"Czartak","date_verified":"2018-08-29T00:00:00.000Z","description":"Small campsite, green, hot water, no Wi Fi.","location":{"latitude":49.842786551655536,"longitude":19.510093526499784},"category":{"name":"Established Campground"}},{"id":69929,"name":"Pilica River Camp","date_verified":"2018-09-04T00:00:00.000Z","description":"small place behind the dam wall.\r\nit's a gravel area between the forest and the river,\r\n","location":{"latitude":51.475008333333335,"longitude":20.0056},"category":{"name":"Wild Camping"}},{"id":70146,"name":"Zoo Parking","date_verified":"2022-09-26T00:00:00.000Z","description":"here is a Parking area free of charge. it is the bus parking area for buses to visit the zoo. we stayed for two nights and nobody brother us. traffic noises of course but ok at night.\r\nin front of the entrance of the zoo is a station for rent bicycles and a Dixi-Toilet.\r\nbus and tram station not far away.\r\n15 - 20 minutes walk to the old town. you can also go by bus (18). \r\nthe alternative quarter of warzaw, praga is not fare from here. ","location":{"latitude":52.26190499999999,"longitude":21.016781666666663},"category":{"name":"Informal Campsite"}},{"id":70336,"name":"Peaceful place","date_verified":"2019-05-12T00:00:00.000Z","description":"An amazing wild place along a beautiful and quiet lake. \r\nAccess with a van without any problems, but depends on the season. \r\n4x4 is better. \r\nYou can stay as long as  you want. ","location":{"latitude":53.73876638715503,"longitude":22.622115109136907},"category":{"name":"Wild Camping"}},{"id":70537,"name":"Binduga Camping","date_verified":"2019-07-31T21:19:26.000Z","description":"Nice campground on a lake. very quite. new toilets and showers (extra fee). washing machine (extra fee). playground for kids, small bar and shop. pedal boat and rowing boat for rent. electricity and water on the pitches available. disposal point for graywater and waste\r\nwe paid 37 PLN for 1 caravan + 2 persons out of the season,\r\nshowers 2 - 5 PLN (5 - 12 minutes)\r\nwashing machine 7 PLN","location":{"latitude":53.55049,"longitude":20.79654},"category":{"name":"Established Campground"}},{"id":71003,"name":"Suwalki forest","date_verified":"2018-09-15T00:00:00.000Z","description":"Only by 4x4, small trail leads to little sand/grass area. Some noise from highway. ","location":{"latitude":54.069005370826304,"longitude":22.95140726584985},"category":{"name":"Wild Camping"}},{"id":71315,"name":"Weichsel Camp","date_verified":"2019-06-19T00:00:00.000Z","description":"flat, grassy area near the river, some anglers around,\r\nnice and quite","location":{"latitude":54.344750000000005,"longitude":18.79179},"category":{"name":"Wild Camping"}},{"id":72423,"name":"Malbork Castle Parking Lot","date_verified":"2023-07-21T13:57:20.000Z","description":"They let you stay in their parking lot over night.\r\nWe paid zt. 50 for 24h \r\nDaytime very busy, but night totally quiet.\r\n","location":{"latitude":54.03763247017855,"longitude":19.03054215392693},"category":{"name":"Informal Campsite"}},{"id":72425,"name":"Motorcycle Mechanic: Stajnia Motocyklowa","date_verified":"2019-08-05T00:00:00.000Z","description":"Very clean, well equipped Workshop.\r\nI went there to change my chain. I did most of the work using my own and their tools. The mechanic helped me with the difficult parts.\r\n\r\nTheir coloection of spare parts is rather limited, go to \"Larsson\" (to be found on Googlemaps) instead.\r\n\r\nThey are very friendly towards travellers, as they do motorcycle travelling themselves. One of the mechanics speaks english.","location":{"latitude":52.26554,"longitude":20.84437},"category":{"name":"Mechanic and Parts"}},{"id":74737,"name":"Forest Parking Gniewkowo","date_verified":"2022-11-12T00:00:00.000Z","description":"Shelters, picnic tables and places for bonfire all around, so might be busier in summer. We had the place all to ourselves in October. Some cars passed in the early morning, maybe fishermen or hunters, but no-one bothered us. Plenty of firewood around. Not far from Toruń, which, if you have the time, has a beautiful gothic old town to stroll around in.","location":{"latitude":52.92391,"longitude":18.47757},"category":{"name":"Informal Campsite"}},{"id":76188,"name":"campside nearby the river","date_verified":"2021-07-30T00:00:00.000Z","description":"Place with fireplace (sometimes there are firewood prepared), toilet, benches and covered place to sit.","location":{"latitude":49.46160042,"longitude":19.14464565},"category":{"name":"Wild Camping"}},{"id":77448,"name":"Lorf Hostel \u0026 Apartments","date_verified":"2018-11-30T00:00:00.000Z","description":"One of the cleanest and nicest hostels I've been of 15 month travelling! Very comfortable beds, blanket and pillow. Hot and really clean showers. Super friendly stuff, no charged luggage storage, tee and coffee included, good kitchen available. We paid 150 zł for two person and three nights in a 10 bed dorm - great price.","location":{"latitude":50.069916,"longitude":19.93265},"category":{"name":"Hostel"}},{"id":78519,"name":"above the village","date_verified":"2018-11-15T00:00:00.000Z","description":"nice place at the end of a forest road, with the view to village","location":{"latitude":49.51113117,"longitude":19.18740449},"category":{"name":"Wild Camping"}},{"id":81178,"name":"Bivak Place ","date_verified":"2023-10-13T14:09:29.000Z","description":"Bivak Place at a lake. A lot of places to stand at the lake. ","location":{"latitude":54.0695311222729,"longitude":16.308284942075897},"category":{"name":"Wild Camping"}},{"id":81179,"name":"Biwac place at a lake. ","date_verified":"2019-06-02T00:00:00.000Z","description":"Biwac place at a lake. Some places to stand. ","location":{"latitude":53.833440234934756,"longitude":21.998653477078303},"category":{"name":"Wild Camping"}},{"id":83426,"name":"Zajazd Private","date_verified":"2018-09-27T00:00:00.000Z","description":"Beautiful campground run by nice guy. Great place to pitch our tent, many many picnic tabes, and many outlets around. WiFi worked all over the grounds. Bathrooms small but clean. There are also rooms to rent. He has a couple apple trees that we were encouraged to enjoy! Two cyclists with a tent was €8.","location":{"latitude":54.093032,"longitude":22.934441},"category":{"name":"Established Campground"}},{"id":83429,"name":"Bosir Campground ","date_verified":"2018-10-19T00:00:00.000Z","description":"Seems to be the only camping in town. 25 zł for two people in our tent. Nice bathrooms with maybe the best showers we have had on our trip. Outdoor wash area for dishes.","location":{"latitude":53.108293,"longitude":23.219257},"category":{"name":"Established Campground"}},{"id":84125,"name":"Stara Kopalnia Parking","date_verified":"2019-02-14T00:00:00.000Z","description":"Parking at the Old Mine Museum. We arrived late afternoon at could stay there overnight. Toilet and small coffee shop during opening hours 8 to 18.","location":{"latitude":50.77171499999999,"longitude":16.260023333333333},"category":{"name":"Informal Campsite"}},{"id":85842,"name":"Lake Augustow","date_verified":"2019-07-07T00:00:00.000Z","description":"During days a popular picknick area. Primitive shower and toilets available. We payed 37zly per night (2018). Very nice wild spots on sand or grass.","location":{"latitude":53.87319014924297,"longitude":23.08558287751868},"category":{"name":"Established Campground"}},{"id":87226,"name":"Parking Lesny Szeniawa","date_verified":"2022-11-02T15:10:33.000Z","description":"Parking  next to an entrance to Wielkopolski NP. If you come from Poznan don't take the road  zeziorna, there is a bridge with 2.8 m limit.  Take the road to Szreniawa  Dworcowa road. ","location":{"latitude":52.31481828,"longitude":16.80461222},"category":{"name":"Wild Camping"}},{"id":87228,"name":"Narew camp","date_verified":"2022-05-02T00:00:00.000Z","description":"Located on Wkra river,  Anmar kayaks. Immediately after the bridge (road 62) at the entrance to  Pomiechowek turn right. Grass by the river.  The place is not active in winter time so you can park. ","location":{"latitude":52.442644,"longitude":20.748538},"category":{"name":"Wild Camping"}},{"id":87230,"name":"Parking Strykow","date_verified":"2019-03-12T00:00:00.000Z","description":"A parking lot next to the lake, noisy close to the road,  but OK for parking mainly in winter season. ","location":{"latitude":51.89797005,"longitude":19.60090753},"category":{"name":"Wild Camping"}},{"id":87231,"name":"A lake on road 123 from Kuznica Zelichowska. ","date_verified":"2019-03-16T00:00:00.000Z","description":"A spot next to a lake on unpaved road north to 123 road few km from Kuznica Zelichowska. ","location":{"latitude":53.00026883,"longitude":16.05236718},"category":{"name":"Wild Camping"}},{"id":87232,"name":"Lugi picnic  lot ","date_verified":"2019-03-17T00:00:00.000Z","description":"A picnic lot in Luigi on the lake nice and quite. ","location":{"latitude":52.94094469,"longitude":15.69461658},"category":{"name":"Informal Campsite"}},{"id":87308,"name":"Parking","date_verified":"2018-09-11T00:00:00.000Z","description":"We sleep two nights here in car. And another camper drive here to sleep more nights and nobody cares. ","location":{"latitude":50.774507697,"longitude":15.734645502},"category":{"name":"Informal Campsite"}},{"id":90692,"name":"Parking lot old town Zamosc","date_verified":"2019-04-23T00:00:00.000Z","description":"No fee, Dixi pit toilet. Just 5 minutes walking distance to the townhall and market square. In the town there are no guarded or fenced parking areas!","location":{"latitude":50.71470326,"longitude":23.2574507},"category":{"name":"Wild Camping"}},{"id":90693,"name":"parking lot Kazimierz Dolny","date_verified":"2019-04-24T00:00:00.000Z","description":"Daily parking fee (15 Sloty - 07.00-21.00), the night is without charge. Between a gas station and beside the river Weichsel. Quite at night.","location":{"latitude":51.32621177,"longitude":21.95079176},"category":{"name":"Informal Campsite"}},{"id":90694,"name":"parking lot Posen City","date_verified":"2019-04-24T00:00:00.000Z","description":"Guarded and fenced parking area, with a pit toilet, close to the market/rynek","location":{"latitude":52.4083163,"longitude":16.93946239},"category":{"name":"Wild Camping"}},{"id":90695,"name":"Niepruszewo","date_verified":"2019-04-25T00:00:00.000Z","description":"Gravel parking area, lots of green, table, fireplaces, short distance to the lake, quiete at night, no charge","location":{"latitude":52.37761572,"longitude":16.60929303},"category":{"name":"Wild Camping"}},{"id":91351,"name":"Campingspot Kanalu Elblaskiego","date_verified":"2020-09-30T00:00:00.000Z","description":"Camping-spot on the Elblagkanal, where ships travel over land. Pick nick Tables, playground and some gazebos. Some spots for a campfire. There are power outlets, but they are locked. Did not check, if they work. It says, that it is payed parking, but people told me that it is free.","location":{"latitude":53.98048166666668,"longitude":19.621046666666665},"category":{"name":"Informal Campsite"}},{"id":93992,"name":"Camping U Michala","date_verified":"2023-07-17T00:00:00.000Z","description":"Little campsite runned by an old lady. Sanitary facilities are old fashioned, but ok.\r\nIt’s just a few kilometers from the bison reserve and the National Park. ","location":{"latitude":52.6925970990395,"longitude":23.830899853880478},"category":{"name":"Established Campground"}},{"id":93993,"name":"Camping Slawomir Glogowski","date_verified":"2019-05-24T00:00:00.000Z","description":"Little basic campsite right at lake Biale. Nice owners. Two bars/restaurant and a little shop across the street. Many mosquitos in may. ","location":{"latitude":51.49689885614414,"longitude":23.521219295154374},"category":{"name":"Established Campground"}},{"id":93994,"name":"Camping Diabla Góra","date_verified":"2021-07-23T15:47:30.887Z","description":"Nice campsite next to San river. Fireplaces, every site has an own covered bench. Good sanitary facilities. Very childfriendly. Also very good price. ","location":{"latitude":49.611541460720446,"longitude":22.275808594252855},"category":{"name":"Established Campground"}},{"id":94583,"name":"Zalew Sulejowski","date_verified":"2019-05-31T00:00:00.000Z","description":"Nice and quiet with a great view by the lake. This side of the lake gives you the afternoon sun. ","location":{"latitude":51.392461188469085,"longitude":19.875964948820247},"category":{"name":"Wild Camping"}},{"id":95611,"name":"łowisko Rokitnica","date_verified":"2019-06-09T00:00:00.000Z","description":"Informal camp site next to small lake used by locals for fishing and wake-boarding. Can be reached via unpaved road. We paid 20 PLN (in june 2019) for a Landcruiser with rooftent. Very basic facilities.","location":{"latitude":51.577328,"longitude":19.222402},"category":{"name":"Informal Campsite"}},{"id":95621,"name":"Masuren Camping Nr. 173","date_verified":"2019-06-09T00:00:00.000Z","description":"Extremely quiet and green campsite. Run by friendly family. directly by the river. about 40 pitches on grass with some shade. toilets and showers new and very clean. The last 800m of the unpaved road to the campground can be very mudy with rain. a little bit tricky for usual campers. paid about 12 Euro with 2 persons, a camper and a dog incl. electricity.","location":{"latitude":53.831914755056516,"longitude":20.419386715162833},"category":{"name":"Established Campground"}},{"id":95721,"name":"Camping Kalina 178","date_verified":"2019-08-12T00:00:00.000Z","description":"Quiet new campsite and hotel (Build in 2018). Campsite green and many big old trees for shade. Some picnic benches with roof. Outside the campsite, 20 meters from the main gate, many restaurants and tourist shops. looks like Italy in 1975. paid about 20 Euro for a camper with 2 persons and a dog. incl. electricity. price per person 14 Slotty (about 4 Euro). about 5 min. walk to the beach.","location":{"latitude":54.341452461604064,"longitude":19.033870504200454},"category":{"name":"Established Campground"}},{"id":95979,"name":"Camping Na Granicy","date_verified":"2022-09-19T00:00:00.000Z","description":"Small Campsite directly at a big lake. Across the street (opposit to the lake) its about 500m to the beach of the Ostsee. Green Campground with place for about 30 Campers. Some shade from big trees. Toilets and showers are completly new and very clean. ","location":{"latitude":54.2621270722363,"longitude":16.0749679031768},"category":{"name":"Established Campground"}},{"id":95985,"name":"cute lake camping","date_verified":"2019-08-03T00:00:00.000Z","description":"A calm and cute swimming lake. Perfect spot after crossing the border in the middle of the night like us. It is relatively quiet, the road next to it is not loud and in the morning the cars park far away from you if you sleep at the corner under the trees. They give OK shade but at 9:30 you will wake up because of the heat. \r\n\r\nThe lake and beach is cute with friendly families coming here, the atmosphere is very relaxed. No annoying youth with music! Water was perfect in June and there are some benches and bushes for shade. \r\n\r\nVery nice place!","location":{"latitude":49.95001,"longitude":22.83059},"category":{"name":"Wild Camping"}},{"id":96005,"name":"Free parking next to church","date_verified":"2019-06-12T00:00:00.000Z","description":"This is the only free parking area near the centre, right next to the church.\r\n\r\nYou can see where it starts with the P sign (with no words under it) and ends with the P sign with the word 'koniec' under it. \r\n\r\nThere were plenty of spaces when we arrived at 16:45 on a weekday.","location":{"latitude":52.411132771570614,"longitude":16.94757965394943},"category":{"name":"Short-term Parking"}},{"id":96403,"name":"Krys-stan","date_verified":"2019-06-15T00:00:00.000Z","description":"Amazing porcnuckles, maybe the best in Poland. Good service. Fair price. 27pln at the moment. Local place! Highly recommended! ","location":{"latitude":53.78431912,"longitude":20.48939564},"category":{"name":"Restaurant"}},{"id":96664,"name":"Lake side camp","date_verified":"2020-08-15T00:00:00.000Z","description":"Beautiful place to camp next to a giant lake. Blueberries grow in the forest all around and there is a picnic table as well as plenty of space the have a tent or hammock. also parking for big rig just before the lake! The water in the lake is crystal clear with many fish. I stayed here on a Saturday night and had a few people come by to enjoy the lake but I'm sure during the weekdays it would be very quiet.","location":{"latitude":53.09173139,"longitude":15.80969885},"category":{"name":"Wild Camping"}},{"id":96842,"name":"Parking area Moschen","date_verified":"2019-06-18T00:00:00.000Z","description":"Very big parking area for free. We were alone there.","location":{"latitude":50.4360838637536,"longitude":17.769899879021583},"category":{"name":"Wild Camping"}},{"id":96910,"name":"Elblag Canal","date_verified":"2019-06-18T00:00:00.000Z","description":"This is the perfect stop for a night right next to the tourist attraction of the overland canal boats.  Interesting to see.  This spot looks like it used to be a camp ground.  We were the only ones here in mid June.","location":{"latitude":53.980506663879936,"longitude":19.621081748121274},"category":{"name":"Wild Camping"}},{"id":97050,"name":"Chmielwo - Narew river","date_verified":"2021-08-14T00:00:00.000Z","description":"Along the river, where it’s wide, a lot of spaces to stay!\r\nGrass for the tents, no mosquitoes, shadow, small sandy access to the river to swim ...  also a lot of fishermen but generally this kind of people don’t make noise! 3G available ","location":{"latitude":52.772616636988495,"longitude":21.140920165945907},"category":{"name":"Wild Camping"}},{"id":97372,"name":"Widok","date_verified":"2019-06-21T00:00:00.000Z","description":"A beautiful camping with all needed amenities right at the lake. ","location":{"latitude":54.000723527430466,"longitude":23.082133215935656},"category":{"name":"Established Campground"}},{"id":97728,"name":"World War 2 Museum","date_verified":"2019-06-25T00:00:00.000Z","description":"Great museum with tours in Polish as well as English. Free entry on Tuesday! audio guides are 5 ZL. definitely worth a visit. I spent 4 hours here and learned quite a bit. ","location":{"latitude":54.35585054,"longitude":18.65993774},"category":{"name":"Tourist Attraction"}},{"id":97879,"name":"Free Camp Michalowo","date_verified":"2021-08-10T12:20:12.000Z","description":"Very nice place for holiday, clean water, toilets, electricity, nice beach and more.","location":{"latitude":52.94983,"longitude":23.76871},"category":{"name":"Established Campground"}},{"id":98087,"name":"Szeroki Ostrów wild camping ","date_verified":"2023-08-20T00:00:00.000Z","description":"Beautiful place to spend some time. A lot of spaces for park and spend night in the wild. Really nice view on the Śniardwy lake. Road is bumpy and narrow, but there were some campers.","location":{"latitude":53.734615912288994,"longitude":21.736098045185667},"category":{"name":"Wild Camping"}},{"id":98587,"name":"Obrony Museum","date_verified":"2019-06-26T00:00:00.000Z","description":"Super cool museum with a giant bunker to explore. This was the home of one of Hitler's biggest artillery guns that were 406 mm. After a few years a remove to France but the museums definitely worth checking out. 12 ZL entry and there's a few other museums close by for about the same price that also have to do with world war 2. The town of hell is quite touristic... almost like a cleaner smaller version of Daytona Beach Florida haha","location":{"latitude":54.62193618,"longitude":18.79784803},"category":{"name":"Tourist Attraction"}},{"id":98711,"name":"Gate Poznan ICHOT","date_verified":"2019-07-03T00:00:00.000Z","description":"great museum showing the history of Poland and her first church. 18 ZL (card or cash) for a guided audio tour of the museum as well as the island just across the river which houses the church as well as a museum. start here and buy your ticket. go through the museum then the rest of the town. I visited for about 5 hours here. learned a lot about Poland and her history. definitely worth a visit. \r\n\r\neven have free WiFi! ","location":{"latitude":52.412189,"longitude":16.951734},"category":{"name":"Tourist Attraction"}},{"id":99345,"name":"next to small lake","date_verified":"2019-07-08T00:00:00.000Z","description":"nice small lake, locals come to fish and swim, nobody seems to bother, big rigs should maybe use the parkinglot of the footballfield","location":{"latitude":53.10066526,"longitude":23.68735739},"category":{"name":"Wild Camping"}},{"id":99890,"name":"Cemetery parking","date_verified":"2019-07-10T00:00:00.000Z","description":"Gravel area just off the main highway, but quiet enough for sleep.  Quite a few visitors to the graveyard during the day so dont arrive too early, try after 7pm.  good for 1 night.","location":{"latitude":51.94813023,"longitude":18.13271725},"category":{"name":"Wild Camping"}},{"id":100058,"name":"Lakeside carpark","date_verified":"2019-07-12T00:00:00.000Z","description":"free carpark next to lake.  30 min walk to Old Town. free public beach, free toilets.  very busy during the day but spaces free up at night.  very quiet over night, good sleep.","location":{"latitude":53.77764192,"longitude":20.45165201},"category":{"name":"Wild Camping"}},{"id":100250,"name":"boat lift canals","date_verified":"2019-07-11T00:00:00.000Z","description":"super cool canals that use mechanical roller a car's to take boats over the high passes.\r\n\r\nthey have a portal potty in a parking lot which I'm sure you could camp in but definitely worth seeing the boats come out of the canals up on the railway cars","location":{"latitude":54.03361624,"longitude":19.5818421},"category":{"name":"Tourist Attraction"}},{"id":100307,"name":"carpark","date_verified":"2019-07-15T00:00:00.000Z","description":"carpark allows overnight stays,  maybe free if no attendant on duty, or €5.  No services but close to the church and restaurants.","location":{"latitude":54.027663,"longitude":21.219629},"category":{"name":"Informal Campsite"}},{"id":100551,"name":"Wolf's lair","date_verified":"2022-05-13T00:00:00.000Z","description":"In the historical site where Hitler was attacked, there is a camping.\r\n80 zl. for visit and camping one night for 2 person and motorhome.\r\nQuiet under the trees.","location":{"latitude":54.07950926,"longitude":21.49509822},"category":{"name":"Established Campground"}},{"id":100614,"name":"Kozia Zagroda Ewa Szczęsna","date_verified":"2019-07-13T00:00:00.000Z","description":"A wonderful farm that has goats, lambs, horses, ponies, dogs, bunnies. Locates in the middle of the fields. A possibility to stay in your own car/caravan or in the guest house (which is still under construction), also possible to stay in a room at the main house. A wonderful lady/host of the farm and house with true friendship and kindness. Possible shower and breakfast. Electricity available, running water. parking 10€.","location":{"latitude":52.370790752182735,"longitude":21.548370080169384},"category":{"name":"Wild Camping"}},{"id":100872,"name":"Shower","date_verified":"2019-07-10T00:00:00.000Z","description":"In the toilets of the petrol station there is a shower. You pay 7 zloty to the cleaning lady. ","location":{"latitude":49.813300645956595,"longitude":18.92042116263781},"category":{"name":"Showers"}},{"id":101034,"name":"Bobr River next to small forrest","date_verified":"2019-03-23T00:00:00.000Z","description":"Very good hidden Spot behind a forrest over a small grassy hill. You have to drive next to a field (no road) to get there. Most likely only accessible by motorcycle because of the grassy hill. You will find fire wood. The ground is grassy and soft though a little uneven. The water doesn’t seem too trustworthy but may be drinkable after some cooking. ","location":{"latitude":51.336232151220194,"longitude":15.563466235155408},"category":{"name":"Wild Camping"}},{"id":101098,"name":"Near the little lake","date_verified":"2019-07-21T00:00:00.000Z","description":"A nice but small parking, in quiet zone in Varsavia.\r\n20 sz. for the center by Uber.","location":{"latitude":52.20923922,"longitude":20.91014753},"category":{"name":"Wild Camping"}},{"id":101469,"name":"carpark in Hel","date_verified":"2019-07-21T00:00:00.000Z","description":"free on weekends and after 8pm Mon-Fri.  close to town and beach.  1.2km walk to northern beach. room for 4 motorhomes in an area marked for bus parking.  very quiet","location":{"latitude":54.604906,"longitude":18.808502},"category":{"name":"Informal Campsite"}},{"id":101470,"name":"Beach carpark","date_verified":"2019-07-21T00:00:00.000Z","description":"paved area just off the highway.  short walk across the dunes to the beach. ","location":{"latitude":54.83108376,"longitude":18.23807975},"category":{"name":"Wild Camping"}},{"id":101497,"name":"Paradise Dzierno Duze","date_verified":"2024-01-05T00:00:00.000Z","description":"Perfect lake to spend the night at. Several spots in this area. Lot of trash :-( There were many friendly local people here at a saturday night and they also slept here. Perfect located when you drive at the highway. Small track down can be very raugh in rainy days!","location":{"latitude":50.36224497952532,"longitude":18.56068680995941},"category":{"name":"Wild Camping"}},{"id":101498,"name":"Camping Barbara","date_verified":"2019-07-15T00:00:00.000Z","description":"Campground at the lake. Nice view. Toilets clean but it stinks a little :-) You have to pay extra for the shower (7zt). 35zt/night (2+van+dog) Look for a white gate in a small street.","location":{"latitude":49.748765,"longitude":20.731415},"category":{"name":"Established Campground"}},{"id":101499,"name":"Wisla Ferry View","date_verified":"2020-09-08T00:00:00.000Z","description":"Several spots next to the river. Friendly fisherman in the morning and  evening. Trash everywhere:-( Water in the river not the best quality...","location":{"latitude":51.352344,"longitude":21.984759},"category":{"name":"Wild Camping"}},{"id":101500,"name":"Miejsce Mocy Parking","date_verified":"2019-07-17T00:00:00.000Z","description":"Big parking lot with picnic table and trash bins. Small walk (1km) to a power place. Quiet and clean.","location":{"latitude":52.684717,"longitude":23.786743},"category":{"name":"Wild Camping"}},{"id":101501,"name":"Perfect World","date_verified":"2020-08-11T00:00:00.000Z","description":"Amazing place with privat beach. Water temperatur is perfect for swiming. Several spots also in the forest. Maybe nothing for big RV because of the sandy path. We get there with 2WD and had no problem. But drive careful. More spots for 4WD. Enjoy:-)","location":{"latitude":53.995012,"longitude":22.029919},"category":{"name":"Wild Camping"}},{"id":101723,"name":"Parking","date_verified":"2019-07-26T00:00:00.000Z","description":"good place for parking for visiting the old center -10 minutes walking..\r\n70 zloty for 24h.\r\nnot so quiet on the night but for only one, why not.","location":{"latitude":50.06542025,"longitude":19.9291527},"category":{"name":"Informal Campsite"}},{"id":102074,"name":"Berries forest ","date_verified":"2019-07-20T00:00:00.000Z","description":"Nice parking spot close to not main road further deep to forest you’ll find plenty of place for tent or hammock","location":{"latitude":49.84394165030877,"longitude":20.471350550794792},"category":{"name":"Wild Camping"}},{"id":102178,"name":"Wild camping at the lake","date_verified":"2019-07-26T00:00:00.000Z","description":"Nice, quiet spot in the forest at the lake. No facilities, two sheltered picnics tables. You can sleep at the jetty or in the tent near the beach.\r\n","location":{"latitude":53.92567117001333,"longitude":23.218496103197822},"category":{"name":"Established Campground"}},{"id":102192,"name":"small spot near gas station","date_verified":"2019-07-22T00:00:00.000Z","description":"It is small place but you can sleep here away from others. It is near highway so you can hear some trucks... Otherwise great place","location":{"latitude":51.501699793626244,"longitude":19.872857365762773},"category":{"name":"Wild Camping"}},{"id":102522,"name":"Biwak next to river Vistola","date_verified":"2019-04-27T00:00:00.000Z","description":"nice place where you can stay for one or more nights. much space for Tents and cars","location":{"latitude":51.77165982061166,"longitude":21.428455773684167},"category":{"name":"Wild Camping"}},{"id":102523,"name":"parking spot with place for tents","date_verified":"2019-04-27T00:00:00.000Z","description":"nice parking spots with many space for Tents and cars. next to the street with much Traffic but it's not very loud","location":{"latitude":51.69300914938692,"longitude":21.409878722082908},"category":{"name":"Wild Camping"}},{"id":102524,"name":"Place for tent. NO CARS. just bikes or cycles ","date_verified":"2019-05-01T00:00:00.000Z","description":"not accessible for cars but for bikes and cycles. ","location":{"latitude":51.3301663516904,"longitude":22.830816484982947},"category":{"name":"Wild Camping"}},{"id":102525,"name":"Grassland at Ukrainian border ","date_verified":"2019-05-02T00:00:00.000Z","description":"very big glass land with a lot of space for tents and Campers","location":{"latitude":51.21205470660282,"longitude":23.748193127951573},"category":{"name":"Wild Camping"}},{"id":103084,"name":"Forest and Fields","date_verified":"2018-11-02T00:00:00.000Z","description":"Nice quiet place between a forest and fields. Close to the main road but not much sound from the street.","location":{"latitude":51.91805206244059,"longitude":15.99474040792882},"category":{"name":"Wild Camping"}},{"id":103147,"name":"Meadow on a hill","date_verified":"2019-08-04T00:00:00.000Z","description":"A flat meadow next to a country road. No access to any services, just a field. There is a spot to park a car next to the road and plenty of space for tents.\r\nSpot is on a top of a small hill so you can enjoy very nice view.","location":{"latitude":49.84066899,"longitude":20.48046144},"category":{"name":"Wild Camping"}},{"id":103155,"name":"Róża Wiatrów, Pustynia Błędowska","date_verified":"2019-08-21T00:00:00.000Z","description":"A well arranged picnic place at a view point, just at the edge of Błędowska Desert. There is a big parking for cars, picnic benches under a roof and public toilet open all the time. A lot of space for tents. Setting fire is forbidden.\r\nPlace is quite popular so some days it might be busy however we were the only one who stayed overnight.\r\nThe views during sunset and sunrise were just amazing.","location":{"latitude":50.335935,"longitude":19.532413},"category":{"name":"Informal Campsite"}},{"id":103210,"name":"Larsson","date_verified":"2019-08-05T00:00:00.000Z","description":"Well equipped motorcycle parts store.\r\nDon't believe current Google maps marker, they moved half a year ago and the address on Google is wrong. ","location":{"latitude":52.22335,"longitude":20.95927},"category":{"name":"Mechanic and Parts"}},{"id":103349,"name":"Lake View","date_verified":"2019-08-06T00:00:00.000Z","description":"Lovely choice of spots between a group of lakes.  we're in a 4x4 with a rtt. Sadly no swimming but very quiet at night.  about 20 mins or so to Auschwitz.  ","location":{"latitude":49.97997234422383,"longitude":19.424870096239033},"category":{"name":"Wild Camping"}},{"id":103498,"name":"Camping U Haliny","date_verified":"2020-09-21T00:00:00.000Z","description":"Relaxing campground along the lake with lots of grass, some trees, nice bathrooms, and very good food. 50pln (~11€) for car and 2px. Electricity is 10pln, 8-min hot water shower is 5pln. Meals are 35pln, including salad and dessert. Next door they rent kayak, SUP, and canoes for 10pln/hr. Check out the nearby monastery.","location":{"latitude":54.07022005,"longitude":23.08501131},"category":{"name":"Established Campground"}},{"id":103929,"name":"Riverside","date_verified":"2021-10-04T07:55:50.000Z","description":"Gravel parking next to a water treatment plant. Nothing fancy but it was quiet and no one came to bother us.","location":{"latitude":49.9650227,"longitude":19.4536023},"category":{"name":"Wild Camping"}},{"id":104078,"name":"Beach river camp","date_verified":"2019-07-30T00:00:00.000Z","description":"Great spot at a quiet beach directly at the river Wisla with an urban view. We enjoyed going for a swim in the morning and the children played in the sand. Good internet.","location":{"latitude":51.418838,"longitude":21.943543},"category":{"name":"Wild Camping"}},{"id":104125,"name":"Campground near Lake","date_verified":"2022-05-09T10:18:46.000Z","description":"Beautiful and quite place directly near the lake.   ","location":{"latitude":52.33118,"longitude":15.50598},"category":{"name":"Wild Camping"}},{"id":104184,"name":"Bunker OWB","date_verified":"2019-08-11T00:00:00.000Z","description":"Quiet and very nice place to stay for a night. Startposition for a trip into the bunker.","location":{"latitude":52.35522103,"longitude":15.46650724},"category":{"name":"Tourist Attraction"}},{"id":104467,"name":"Centrum dialogu","date_verified":"2021-07-22T00:00:00.000Z","description":"For 20 PLN per person per night you have a great campsite near the Auschwitz museum. ","location":{"latitude":50.02339464761714,"longitude":19.197770248803085},"category":{"name":"Established Campground"}},{"id":104577,"name":"Beautiful river side camp","date_verified":"2019-08-22T00:00:00.000Z","description":"Only 4km to the highway. Got this advice by a local. Wild camping is allowed. Police passes by for security. You can swim in the river or make a camp fire. Can be crowed at the weekend.","location":{"latitude":50.133758912366396,"longitude":21.676478168438546},"category":{"name":"Wild Camping"}},{"id":104747,"name":"GUZ BAR","date_verified":"2019-08-15T00:00:00.000Z","description":"Cheap place to have lunch. For 15zl you get portion of meat, fries and salad. Nice local place with outside terrace. Available parking.","location":{"latitude":51.4229418,"longitude":22.63996959},"category":{"name":"Restaurant"}},{"id":104761,"name":"Waldgut Lesny Dwor","date_verified":"2019-08-25T13:25:48.125Z","description":"Nice little campground in de garden of a closed restaurant ","location":{"latitude":50.59286487293485,"longitude":16.580897038817945},"category":{"name":"Established Campground"}},{"id":105023,"name":"forest camp","date_verified":"2019-08-15T00:00:00.000Z","description":"Campsite in a forest with tables and benches.","location":{"latitude":54.5548521370782,"longitude":17.979535880666113},"category":{"name":"Wild Camping"}},{"id":105480,"name":"Camping Tramp","date_verified":"2019-08-18T00:00:00.000Z","description":"In a bend of the river, on the edge of Cisna, a nice grassy large campground with mostly tents. Nice owner speaks a little bit of English. Hot shower 5 zlt, camping pp 15 zlt and car 10 zlt. Access to river and bonfire at night (guitar available). Small shops and restaurants in town, walking distance. Beautiful surroundings.","location":{"latitude":49.20776559971273,"longitude":22.32826746068895},"category":{"name":"Established Campground"}},{"id":105576,"name":"Glinki Lake","date_verified":"2023-05-28T00:00:00.000Z","description":"Campsite at the lakeshore. Entire northern and eastern side of lake is available for camping. The lake is surrounded by nice forest, water is clean and in contradiction to Biale Lake this place is very calm and peaceful. Anyway you'll find a place to leave your car (it's possible to get just to the shore with a vehicle) and set tents. Great place for camping, having barbecue or bonfire and chill out. We've heard rumors there is also a shower available but we've failed to find it :)","location":{"latitude":51.50952,"longitude":23.56046},"category":{"name":"Informal Campsite"}},{"id":105577,"name":"Community Gardens","date_verified":"2019-08-10T00:00:00.000Z","description":"Big parking surrounded by community gardens, small stadium and wild meadows. It's 10 minutes of walking away from old town of Zamość and 2 minutes away from city beach at the lake (walk a wild road through the meadows).\r\nThere is plenty of space for tents. Toilets and showers are available at city beach.","location":{"latitude":50.70960829,"longitude":23.24121709},"category":{"name":"Wild Camping"}},{"id":105579,"name":"Bug River near Drohiczyn","date_verified":"2020-09-20T00:00:00.000Z","description":"Nice spot for camping next to Bug river, close to Drohiczyn. Place is surrounded by forest. Good for campers, cars and setting tents. You can have a barbecue or bonfire, and bath in the river which is 50m away. The spot is easily accessible with a road from Drohiczyn. There are a lot of other places among river coast. ","location":{"latitude":52.38767,"longitude":22.66633},"category":{"name":"Wild Camping"}},{"id":105580,"name":"Bondary beach at Siemianowka Lake","date_verified":"2020-07-21T00:00:00.000Z","description":"Big and well equipped free camping site in a village called Bondary at Siemianowka Lake. There is a lot of space for campers, vans or any kind of cars and setting tents. Place is next to a nice sandy beach with a view point at the top of a tower and a lot of equipment like umbrellas or basic gym machines. There are also pit toilets, electricity and hot showers available. You can stay in the middle of the site or a bit away from people in a forest. Place is popular but not busy. Hard to believe it's for free.","location":{"latitude":52.948942,"longitude":23.768967},"category":{"name":"Informal Campsite"}},{"id":105582,"name":"Camping spot at Biebrza river","date_verified":"2019-08-20T00:00:00.000Z","description":"Great camping spot next to Biebrza river. Beautiful place, clear water, forest and wild nature around. Place was built as a stop for Green Velo cycling route. It's a big meadow next to the river. There is a toilet, showers and a small bar next to it. Easily accessible for any car, close to paved road. You can either set your tent on a grass and leave your car at the parking within your sight or enter a meadow with vehicle. We highly recommend to visit this place.","location":{"latitude":53.55041,"longitude":22.90183},"category":{"name":"Informal Campsite"}},{"id":105586,"name":"Grzegorz Magdalenowo","date_verified":"2019-08-20T00:00:00.000Z","description":"Beautifully located, small camping site next to Wigry Lake. Electricity, showers and toilets available, place for bonfire and barbecue, access to the lake. Owners are very helpful and friendly.\r\nYou can also rent a kayak here and explore Wigry Lake or Czarna Hańcza River.","location":{"latitude":54.073749,"longitude":23.103043},"category":{"name":"Established Campground"}},{"id":105659,"name":"Close to the City Center","date_verified":"2019-09-21T00:00:00.000Z","description":"Parking for the nearby lake. We were the only car staying there over night. \r\nQuiet, no rubbish.","location":{"latitude":50.03572,"longitude":19.91319},"category":{"name":"Informal Campsite"}},{"id":105715,"name":"Camping Marina Podwierzbie","date_verified":"2023-07-09T00:00:00.000Z","description":"Cute small wellkept campground. Lovely grass, two excellent bathrooms, continuous hot water, covered play/grillroom and small childrens playground. Very enthousiastic young owner, speaks English. We paid 65 pln for two persons and campercar.","location":{"latitude":49.64746029116213,"longitude":20.67758792079985},"category":{"name":"Established Campground"}},{"id":106104,"name":"Gosciniec Jurajski","date_verified":"2019-08-22T00:00:00.000Z","description":"Nice grassy campsite next to small hotel. Open grassy field with one  corner with pine trees for shade. Fire circles around to make fires in which is nice. Large covered area (presumably used by hotel for functions) that is used by campers for shelter and BBQ-ing, would be great for shelter when raining. Really cheap, PLN 52 for one night for 2 adults, 2 kids and 2 tents.  Good facilities, seems nice walks around (others with backpacks on coming back in the evening), however we just overnighted... not busy, only a handful of other campers.","location":{"latitude":50.5679942064916,"longitude":19.53614768868682},"category":{"name":"Established Campground"}},{"id":106123,"name":"Wuthering heights campground","date_verified":"2019-08-24T00:00:00.000Z","description":"Simple campsite with a few level spots on terraces. Clean bathrooms and fully equipped kitchen in the guesthouse. Beautiful countryside. We paid 40 Pln for campercar and 2 people. Owner speaks some English.","location":{"latitude":50.22812757175416,"longitude":16.751217395067215},"category":{"name":"Established Campground"}},{"id":106282,"name":"Camping Family","date_verified":"2020-06-21T18:08:05.232Z","description":"Newly built, beautiful campground. Modern and perfectly clean facilities (kitchen, toilets, showers). Free wifi. You can rent bikes and kayaks for exploring the area such as the Geopark or Muskauer Park which are really close. The owners also speak German and are super friendly! Price: 15 € for 2 Persons including a car and a rooftop tent. ","location":{"latitude":51.55583101,"longitude":14.7712942},"category":{"name":"Established Campground"}},{"id":107711,"name":"Camping #42","date_verified":"2019-09-04T00:00:00.000Z","description":"The place is perfect for relaxing.  Very silent day and night.\r\nThere is always a view of the lake from the vehicle and tent stands. Sanitary buildings are somewhat older, but everything worked (even hot water).\r\nThe staff is friendly, some can speak English but if there are no questions they will leave you completely alone.\r\nPitches are all with electricity and water supply.\r\nNo shopping facilities or bar on the site. By bicycle about 3.5km to the city, there sufficient supply. Barbecue and campfire at the lake allowed.\r\nLow cost: 4x4 - 7m camper and 2 persons including electricity is 15€ every day (Sept. 2019).\r\nThe campground is good for 10 tons plus...\r\nPS: no coins for the showers - showers as long as you want....","location":{"latitude":50.479249049999986,"longitude":17.12209847999999},"category":{"name":"Established Campground"}},{"id":108203,"name":"forest car parking","date_verified":"2023-07-06T00:00:00.000Z","description":"parkig near main road to Biała Podlaska. By night very quiet.\r\nhas a fireplace.","location":{"latitude":52.8081499468642,"longitude":22.665801593997802},"category":{"name":"Wild Camping"}},{"id":108229,"name":"Białowieża park","date_verified":"2020-07-19T00:00:00.000Z","description":"Parking in The middle of Białowieża city, near a huge park. 10zl per day, parking is not closed at night. ","location":{"latitude":52.70029816900067,"longitude":23.842596056184398},"category":{"name":"Informal Campsite"}},{"id":108951,"name":"Parking next to park in town","date_verified":"2019-09-13T00:00:00.000Z","description":"Next to a big park. Quiet. Very light traffic in the morning. Under big trees, very shady. OK for several big rigs together. A police car passed by in the evening they did not say anything. Locals with dogs passed by. Weak WiFi connection eventhough it is in town. Interesting not to have to drive too far from the highway when you travel through Europe within a few days.","location":{"latitude":51.25720333333334,"longitude":15.562864999999999},"category":{"name":"Informal Campsite"}},{"id":109810,"name":"let'srelax","date_verified":"2019-09-10T00:00:00.000Z","description":"old but quiet place, room and shared bath/ tub/, spacious dining room just like home. \r\n120 Pln with breakfast. \r\nOwner is friendly but speak little English. \r\ndownside# wifi is weak in room and restaurant close at night. ","location":{"latitude":54.2506336,"longitude":23.0750738},"category":{"name":"Hostel"}},{"id":110019,"name":"Riverside","date_verified":"2019-09-22T00:00:00.000Z","description":"Beautiful place on lawn next to the river Vistula. A lot of flat space for any kind of vehicle. During day on a weekend some people around (walkers, fishermen,...). Completely quiet at night. Could be busy in high season. 4G with orange. 4x4 not necessary.","location":{"latitude":50.02273996754087,"longitude":19.803389818971866},"category":{"name":"Wild Camping"}},{"id":110026,"name":"Drinking water","date_verified":"2019-09-22T00:00:00.000Z","description":"Here you can get drinking water to fill your tanks.","location":{"latitude":50.01052113188353,"longitude":19.81165239113715},"category":{"name":"Water"}},{"id":110121,"name":"Free official camping","date_verified":"2019-09-23T00:00:00.000Z","description":"It is a parking lot next to a park but it is explicitly allowed to camp here. They even have three electricity points (230V) and there are toilets and showers (only available during opening hours of cafe). Also bins available. Everything is for free! On a sunny Sunday afternoon it was really busy but all people left late afternoon. Completely quite at night. There is also a small playground for children.","location":{"latitude":50.19444518730762,"longitude":18.446456578255955},"category":{"name":"Established Campground"}},{"id":110519,"name":"Good for a night","date_verified":"2019-09-26T00:00:00.000Z","description":"in the church parking lot just behind the church.  something like this is protected from street noise.  good for a night.","location":{"latitude":50.890765283443116,"longitude":20.118145582879865},"category":{"name":"Wild Camping"}},{"id":111112,"name":"Free Water","date_verified":"2019-09-26T00:00:00.000Z","description":"Free Water good quality. .At the bottom of the cemetery parking.  easily accessible","location":{"latitude":50.904545829780226,"longitude":20.15008982566078},"category":{"name":"Water"}},{"id":111703,"name":"Field camp close to Przemyśl","date_verified":"2019-09-21T00:00:00.000Z","description":"Leveled places in the meadows near a dirt track at the San River. Very close to the city of Przemyśl, not to far from the main road. But the place is out of sight from any houses and quiet. Decent alternative to all the TIR parkings closer to the border. ","location":{"latitude":49.7940736,"longitude":22.79833056},"category":{"name":"Wild Camping"}},{"id":112425,"name":"Fishing pond","date_verified":"2023-07-28T00:00:00.000Z","description":"Fishing pond with plenty of space for camping and overlanders. A mobile toilet was available October 2019. Close to the motorway which you can hear.","location":{"latitude":51.01639732738682,"longitude":16.772083812033763},"category":{"name":"Wild Camping"}},{"id":112771,"name":"Parking lot","date_verified":"2019-10-16T00:00:00.000Z","description":"Parking lot with pit toilets. Ideal for hiking or mountain biking trips.","location":{"latitude":49.28305352454317,"longitude":19.842251590871307},"category":{"name":"Informal Campsite"}},{"id":113102,"name":"Riverside camp","date_verified":"2022-04-30T00:00:00.000Z","description":"Several spots at the riverside. The position marks the most private spot but there are several spots closer to the road. Big rigs and campers can park close to the road whereas smaller vehicles can find more private spots. We did a day of hiking in Tatra from here. In accordance with other apps the area is busy in sommertime. Also there is surprisingly much traffic on the bad gravel road leading to the village.","location":{"latitude":49.28924536119241,"longitude":19.85322551559578},"category":{"name":"Wild Camping"}},{"id":113638,"name":"WW2 machine-gun bunkers","date_verified":"2020-09-27T00:00:00.000Z","description":"The Lidzbark triangle hike starts at this parking lot. If interested in military history it is an excellent 1h hike.\r\nVery quiet and peaceful place in the forest, also lots of old logging roads in the area where you probably can park. ","location":{"latitude":54.134215900552896,"longitude":20.249481423669923},"category":{"name":"Wild Camping"}},{"id":113658,"name":"Water tap","date_verified":"2019-10-24T00:00:00.000Z","description":"Water tap in street. Free water and a lot of space for big car. ","location":{"latitude":51.22732215979989,"longitude":22.550084327471836},"category":{"name":"Water"}},{"id":113760,"name":"Camp by a lake","date_verified":"2022-04-29T07:05:52.000Z","description":"A free campsite just next to a lake. Seems to be very popular, but there is also lots of space here. Very quiet. The gravelroad in can easily be missed, especially when dark outside. ","location":{"latitude":52.51342586462755,"longitude":17.18676404545658},"category":{"name":"Wild Camping"}},{"id":114864,"name":"On Zalew Zemborzycki","date_verified":"2022-06-08T06:21:39.000Z","description":"A place by the lake. On weekends a lot of people, but quiet at night. You can burn fire. Large vehicles can stay in the parking lot, it is at the entrance. Parking payable in the summer season € 2 per day. Near toitoi at the last bus stop. There are no other extras.","location":{"latitude":51.1819983,"longitude":22.5377534},"category":{"name":"Wild Camping"}},{"id":114865,"name":"Lublin Old Town","date_verified":"2019-10-28T00:00:00.000Z","description":"A large parking lot next to the castle in Lublin. The best place to explore the old city. You can stay overnight if you don't mind street noise. Near the market, a large gallery and many other attractions. 200 m from the place is a public toilet, for a fee you can pour sewage and pour drinking water.","location":{"latitude":51.2479615,"longitude":22.5733095},"category":{"name":"Wild Camping"}},{"id":115243,"name":"gas bottling plant","date_verified":"2020-07-18T14:17:26.000Z","description":"A place authorized to fill bottle in Poland.  You can legally fill the gas into the bottle.  Open from 8 to 18.","location":{"latitude":51.55923485716903,"longitude":22.526342968424068},"category":{"name":"Propane"}},{"id":118452,"name":"Legato Motocykle Warszawa","date_verified":"2019-12-09T00:00:00.000Z","description":"Motorcycle shop\r\nClothes, helmets, boots, accesories, parts etc\r\nFree WiFi\r\nTea, Coffee","location":{"latitude":52.2162,"longitude":20.85596},"category":{"name":"Mechanic and Parts"}},{"id":121712,"name":"Local park with great views","date_verified":"2019-12-01T00:00:00.000Z","description":"After pavement ends, continue down the road, it will be on your right. There is a large sign with map/info.  Covered picnic tables and great views from top of the hill. Not an official campground but local caretaker said it was ok to set up tent. Campfires are ok.","location":{"latitude":50.08288,"longitude":19.49925},"category":{"name":"Informal Campsite"}},{"id":122350,"name":"the forgotten lido","date_verified":"2019-08-02T00:00:00.000Z","description":"old, public lido direct at the lake. overall a nice and quiet spot with a smal beach and jetty, water tap and public toilet (not clean) available ! #mannitalks","location":{"latitude":53.32252,"longitude":16.08472},"category":{"name":"Wild Camping"}},{"id":122353,"name":"Little track along the road","date_verified":"2019-11-29T00:00:00.000Z","description":"Small track off the road on our way to Katowice. It’s a dirt road that is probably a work road for the forest plantations.\r\n\r\nSafe and far away off to not be seen by the main road! ","location":{"latitude":50.656820027596986,"longitude":19.000401214594014},"category":{"name":"Wild Camping"}},{"id":122357,"name":"in the woods","date_verified":"2019-07-30T00:00:00.000Z","description":"a small resting spot in the wood with tables and seats close to a small lake. you need to follow the old and myterious stairs down to the lake and stop at the smal platform to enjoy the great view. #mannitalks","location":{"latitude":53.59305,"longitude":19.01355},"category":{"name":"Wild Camping"}},{"id":122364,"name":"headland","date_verified":"2019-08-03T00:00:00.000Z","description":"small and beautiful campground direct at the lake with a small private beach. shower, shop and restaurant accross the street. #mannitalks","location":{"latitude":53.93202,"longitude":22.28764},"category":{"name":"Established Campground"}},{"id":123011,"name":"lisi ogon ","date_verified":"2019-07-14T00:00:00.000Z","description":"On the lake shore a place for a bonfire.\r\n\r\nNad brzegiem jeziora miejsce na ognisko. ","location":{"latitude":53.86036,"longitude":23.03367},"category":{"name":"Wild Camping"}},{"id":123149,"name":"A\u0026O hostel","date_verified":"2020-01-24T00:00:00.000Z","description":"this is the second time that I've stayed at this hostel while passing through Stuttgart Germany.\r\n\r\nIt's the cheapest hostel that you're going to find at €8 a night. They will end up charging you for sheets, towels, coffee and anything extra but you can't really beat the price.\r\n\r\nThere is not secure parking but I've had no issue leaving my motorcycle out front, locked to the fence. ","location":{"latitude":52.16844053,"longitude":20.18324053},"category":{"name":"Hostel"}},{"id":125105,"name":"beautiful spot on the tatra mountains","date_verified":"2019-10-10T00:00:00.000Z","description":"Top place with view on the Tatra Mountains","location":{"latitude":49.33034475,"longitude":19.80522089},"category":{"name":"Wild Camping"}},{"id":129176,"name":"Bandzior4x4","date_verified":"2020-03-21T00:00:00.000Z","description":"Very good mechanic - all types of cars. Especially Patrols, Toyotas, Land Rovers. You can menage all problems thanks to Robert experience. Fast diagnostic and help.","location":{"latitude":53.02016,"longitude":17.7652},"category":{"name":"Mechanic and Parts"}},{"id":129396,"name":"Orlen_Fuel_Sta","date_verified":"2020-03-29T00:00:00.000Z","description":"Reliable fuel station, all needed kind of fuel are ready to get. Services are on place and personel is customer friendly.","location":{"latitude":54.05676,"longitude":15.2594},"category":{"name":"Fuel Station"}},{"id":129511,"name":"Camping Lasówka","date_verified":"2021-07-17T00:00:00.000Z","description":"Nice place for camping in mountains, near to forest and ski area","location":{"latitude":50.3215,"longitude":16.43765},"category":{"name":"Wild Camping"}},{"id":129513,"name":"Willa Zameczek","date_verified":"2020-04-03T00:00:00.000Z","description":"Nice hotel with parking in the center of beautiful spa city. Near is a lot of attraction.","location":{"latitude":50.41098,"longitude":16.5098},"category":{"name":"Hotel"}},{"id":129843,"name":"Drapacz Karwica","date_verified":"2021-07-17T00:00:00.000Z","description":"Formal commercial camping by the Nidzickie Lake. Now it's wild and free but you can find one \"TOI TOI\" toilet. Camping place is hidden in the forrest and there is no offical directional signs. You have to navigate on GPS. From main road there is about 9km on gravel.","location":{"latitude":53.56649,"longitude":21.53738},"category":{"name":"Established Campground"}},{"id":130904,"name":"Camping w Dolinie Chochołowskiej","date_verified":"2020-05-18T00:00:00.000Z","description":"Nice place for small and big campers just few steps from the main gate of Chocholowska Valley;\r\nElectricity, water, dump point, TV coverage, bikes rental -you will find here","location":{"latitude":49.28861630619437,"longitude":19.849762497488268},"category":{"name":"Established Campground"}},{"id":130905,"name":"Camping „Wyzwanie” - kemping nad Wdą","date_verified":"2020-06-03T00:00:00.000Z","description":"Very friendly owner, beautiful, large space close to the small river Wda, between forests. Fireplaces, water, electricity, WC, showers - just everything what You need; owner speaks German; 100% nature. I recommend this place.","location":{"latitude":53.82816491653568,"longitude":18.17912220956588},"category":{"name":"Established Campground"}},{"id":131944,"name":"Peace Church","date_verified":"2020-06-27T00:00:00.000Z","description":"Superb wooden church. Exceptional interior decorations. 7 slotis the entrance.\r\n\r\nSuperbe église tout en bois. décorations intérieures exceptionnelles. 7slotis l'entrée.","location":{"latitude":50.846,"longitude":16.4926},"category":{"name":"Tourist Attraction"}},{"id":131980,"name":"air de jeux pour enfants","date_verified":"2020-06-27T00:00:00.000Z","description":"children's playground where you can park and sleep. small picnic kiosk\r\n\r\nair de jeux pour enfants où on peut de stationner et y dormir. petit kiosque pour le picnic","location":{"latitude":51.09701558,"longitude":16.7241371},"category":{"name":"Wild Camping"}},{"id":132035,"name":"parking","date_verified":"2021-12-05T00:00:00.000Z","description":"shaded parking in the city center. ideal for visiting the city\r\n---\r\nparking ombragé en centre ville. idéal pour visiter la ville","location":{"latitude":51.1045572,"longitude":17.01486606},"category":{"name":"Short-term Parking"}},{"id":132043,"name":"Parking near lake","date_verified":"2020-06-29T00:00:00.000Z","description":"Parking near a lake where it is possible to swim. Public toilets. Lots of people as soon as it is hot.\r\n\r\nparking près d'un lac où il est possible de se baigner. toilettes publiques. beaucoup de monde dès qu'il fait chaud.","location":{"latitude":53.01865535,"longitude":18.073185},"category":{"name":"Informal Campsite"}},{"id":132086,"name":"Parking by the sea","date_verified":"2020-06-29T00:00:00.000Z","description":"Parking by the sea. Fish for sale right next door. Over night possible.\r\n--\r\nparking en bord de mer. vente de poisson juste à côté. nuit possible.","location":{"latitude":54.73217717,"longitude":18.58602966},"category":{"name":"Wild Camping"}},{"id":132166,"name":"parking","date_verified":"2020-07-01T00:00:00.000Z","description":"Ideal parking for visiting the dunes. Bring a bike or take the electric buses\r\n\r\nFRANCAIS\r\nparking idéal pour aller visiter les dunes. prévoir un vélo ou prendre les bus électriques","location":{"latitude":54.75924919,"longitude":17.54357431},"category":{"name":"Short-term Parking"}},{"id":132222,"name":"PARKING Polanka Redłowska","date_verified":"2020-11-01T00:00:00.000Z","description":"large parking lot along the coast.  Direct access to the beach.  possibility of staying overnight.\r\n\r\n\r\n","location":{"latitude":54.50255693,"longitude":18.5579768},"category":{"name":"Wild Camping"}},{"id":132223,"name":"Harbour Office","date_verified":"2023-09-16T00:00:00.000Z","description":"Parking right next to the harbor Admin office.  water, shower, electricity, wc available.  Get permission from harbor office.  5 min walk from the city center.","location":{"latitude":54.35397464,"longitude":18.66567407},"category":{"name":"Informal Campsite"}},{"id":132292,"name":"Parking Ground","date_verified":"2020-06-22T00:00:00.000Z","description":"I was standing there on the parking ground for busses for 4 nights. nobody was comming, a nice place directly by a large park","location":{"latitude":51.11253,"longitude":17.08818},"category":{"name":"Wild Camping"}},{"id":132354,"name":"parking in the park","date_verified":"2020-07-04T00:00:00.000Z","description":"you can park along the road in the Park. it is calm and you can stay the night","location":{"latitude":52.21191483,"longitude":20.99458342},"category":{"name":"Wild Camping"}},{"id":132391,"name":"Parking Ground","date_verified":"2020-07-05T00:00:00.000Z","description":"A long parking ground for lots of cars, I was staying there for 5 nights.","location":{"latitude":51.76921,"longitude":19.41983},"category":{"name":"Wild Camping"}},{"id":132500,"name":"Water","date_verified":"2020-07-07T00:00:00.000Z","description":"Water at the entry of the cemetery. No problems to fill the tank.","location":{"latitude":50.05866512,"longitude":19.55761796},"category":{"name":"Water"}},{"id":132532,"name":"parking next to the lake","date_verified":"2022-08-15T00:00:00.000Z","description":"Parking next to the lake. Far from the center of the city. Calm during the night.","location":{"latitude":50.03448091,"longitude":19.98363753},"category":{"name":"Wild Camping"}},{"id":132556,"name":"potable water ","date_verified":"2021-12-03T00:00:00.000Z","description":"potable water tape next to the road. no problems to fill the tank","location":{"latitude":50.03698909,"longitude":19.97671206},"category":{"name":"Water"}},{"id":132597,"name":"Leg-pole namiopole Campground","date_verified":"2023-07-09T00:00:00.000Z","description":"we checked out 3 campsites around the lake and this is by far the nicest. just choose a spot in the back away from all other people and you are all by yourself. very cheap and toilets are clean. you are just by the river and they also have some hotdogs, chips, beer and a small store whre you get the basics. trees provide some privacy","location":{"latitude":49.45841208100319,"longitude":20.212038662284613},"category":{"name":"Established Campground"}},{"id":132603,"name":"parking in the forest","date_verified":"2020-07-08T00:00:00.000Z","description":"cool parking in the forest. next to the memorial of the crab train of Frank Hans, Nazi condamed in Nuremberg","location":{"latitude":50.01476132,"longitude":20.24095259},"category":{"name":"Wild Camping"}},{"id":132604,"name":"mine of salt","date_verified":"2020-07-09T00:00:00.000Z","description":"beautiful mine of salt of wielicczka. church, sculpture, .... very nice","location":{"latitude":49.98420225,"longitude":20.05644351},"category":{"name":"Tourist Attraction"}},{"id":132620,"name":"parking free for the mine of salt","date_verified":"2020-07-09T00:00:00.000Z","description":"free parking for the mine of salt. 5min to walk to the entry of the mine","location":{"latitude":49.98869879,"longitude":20.05340233},"category":{"name":"Short-term Parking"}},{"id":132720,"name":"Bukowiek National Park","date_verified":"2020-07-05T00:00:00.000Z","description":"Nice and quiet nice trees to have plenty shade","location":{"latitude":53.763996502434615,"longitude":19.589758794772987},"category":{"name":"Informal Campsite"}},{"id":132852,"name":"Wild Camping near Szczecin","date_verified":"2020-07-07T00:00:00.000Z","description":"Forest park at the left side of highway 10 heading north.\r\nSeveral nice and quiet spot to sleep. ","location":{"latitude":53.396225,"longitude":14.709640000000002},"category":{"name":"Wild Camping"}},{"id":132918,"name":"Nearby Opatowiec in front of the ferry","date_verified":"2020-07-13T00:00:00.000Z","description":"Free parking ground at the the river wisla nearby the village opatowiec.\r\n","location":{"latitude":50.24161036596656,"longitude":20.72707853281938},"category":{"name":"Wild Camping"}},{"id":132934,"name":"Beachcamping at Jeziorsko Lake","date_verified":"2020-07-14T00:00:00.000Z","description":"Lots of shady spots to park right next to the lake. Sandy Beach and Crystal clear water. Spent one night and a beautiful summer day here. Got busy at noon, locals with there families. Night was quiet. ","location":{"latitude":51.85516681,"longitude":18.67812579},"category":{"name":"Wild Camping"}},{"id":133072,"name":"Camping Pielaka","date_verified":"2020-09-24T00:00:00.000Z","description":"Campingsite nearby Kazimierz Dolny,\r\nAbout 1 km zu the City, 50 meters to the river weichsel.","location":{"latitude":51.331353583420935,"longitude":21.95891411977071},"category":{"name":"Established Campground"}},{"id":133075,"name":"Camp Bursztynowy Las","date_verified":"2020-07-16T00:00:00.000Z","description":"Camp Bursztynowy Las offers 30 camper spots, as well as accomodation in galmping-style safari tents and cabins and en suite bungalows. It is perfectly located in the middle of a pine forest, 5 minutes walk from a clean, wide, sandy beach and only 20 minutes to the city center by taxi. In the season water tram can bring you to the center through the Gdansk back waters - excellent trip. \r\nCamper spots are wide, with electricity connection and offer a lot of privacy. The place is very peaceful and quiet.","location":{"latitude":54.36718,"longitude":18.76487},"category":{"name":"Established Campground"}},{"id":133077,"name":"Noclegi","date_verified":"2020-07-15T00:00:00.000Z","description":"Nice hostel with very friendly people. \r\nNo camping possible. But rooms with shared kitchen. \r\nGood WiFi connection and space to hang out. \r\n\r\nSpeak some english and some german. \r\n\r\nATM and supermarkets are close by","location":{"latitude":53.26406515333775,"longitude":23.773817066361254},"category":{"name":"Hostel"}},{"id":133830,"name":"River bend beach","date_verified":"2020-09-04T00:00:00.000Z","description":"Nice place directly at the river beach, deep enough for swimming. Space for 5-10 cars. Road of stones. Bigger trucks may have a problem to approach directly to the beach. But there is enough space to turn around. ","location":{"latitude":49.51579341088202,"longitude":21.697135651173028},"category":{"name":"Wild Camping"}},{"id":133949,"name":"Marszowice - stone beach","date_verified":"2020-07-28T00:00:00.000Z","description":"Nice place, close to the village, directly at the river. Only stones, and not the small ones :-) Big trucks will probably not be able to reach it. ","location":{"latitude":49.90287713978995,"longitude":20.235546834841944},"category":{"name":"Wild Camping"}},{"id":133952,"name":"Zator cementery","date_verified":"2020-07-29T00:00:00.000Z","description":"Cementery is always good place where to find the water...","location":{"latitude":49.99944455881906,"longitude":19.43167701668364},"category":{"name":"Water"}},