[{"id":7394,"name":"quiet clearing in lithuanian forest.","date_verified":"2023-09-12T00:00:00.000Z","description":"acesses by a dirt track from the road, when nearing the coordinates, you will se a few tracks, follow them and you will reach a nice clearing. I doubt anything bigger than a 4x4 would fit down the forest tracks though!","location":{"latitude":55.83762,"longitude":23.06423},"category":{"name":"Wild Camping"}},{"id":36565,"name":"Downtown forest","date_verified":"2023-06-18T00:00:00.000Z","description":"Hostel with small camping space. Best for tents but there is a limited amount of space for small campers, book in advance. Fantastic location but the bar is big and busy and noisy so be prepared! ","location":{"latitude":54.67801752877302,"longitude":25.30225769634532},"category":{"name":"Established Campground"}},{"id":36765,"name":"Lake near Kavarskas","date_verified":"2017-06-09T00:00:00.000Z","description":"small place at the end of the dam marked with white poles. good fishing. place for 3 small vans or 1 big rig.","location":{"latitude":55.454047008296,"longitude":24.885207227713725},"category":{"name":"Wild Camping"}},{"id":37164,"name":"Lake Rubikiu Ezeras","date_verified":"2017-06-16T06:39:59.644Z","description":"This is one of the many free camping and picknick spots around this lake. Mostly  wth primitive wc, tables and fire place. some have space for bigger rigs, this one suits only smaller cars.","location":{"latitude":55.484954586235965,"longitude":25.307665581360453},"category":{"name":"Informal Campsite"}},{"id":39639,"name":"Ferry to neringa","date_verified":"2023-07-25T00:00:00.000Z","description":"Ferry to neringa. We paid €19 euro for a t5 campervan. It's a return ticket Although we used only one way.","location":{"latitude":55.68874,"longitude":21.13951},"category":{"name":"Vehicle Shipping"}},{"id":40798,"name":"Beautiful Paddock","date_verified":"2023-08-02T00:00:00.000Z","description":"Two big baddocks, surrounded by trees, near a small stream. One long drop toilet, fireplace, seating benches. Apparently, the place is being maintained by somebody. At the time we visited, we were the only ones there and nobody came around to collect money. Can't guarantee this is a free site, though.","location":{"latitude":54.3391156,"longitude":24.8500685},"category":{"name":"Informal Campsite"}},{"id":40799,"name":"Perlojos","date_verified":"2017-08-10T19:49:03.189Z","description":"There are a couple of camping spots around the lake. At the coordinates specified, there is one supposedly free site, which was taken when we arrived. \r\n\r\nNext to it, there are two lots, also adjacent to the lake, with phone numbers you're supposed to call when you intend to stay overnight. The phone number didn't work, however, a lady came around to collect 3€ for the night. Nice place overall, but kind of extreme with mosquitoes.\r\n\r\nAccess is via a bumpy dirt/Forest road from Ziurai (turn left into the forest road at the first hamlet after Ziurai)  or a slightly better one from Mergezeris (just turn into the next best forest road when you're just east of the place).","location":{"latitude":54.169309,"longitude":24.428756},"category":{"name":"Informal Campsite"}},{"id":40803,"name":"Puvočių","date_verified":"2020-08-03T00:00:00.000Z","description":"This is a paid site. There are many lots surrounded by trees and also a large free area. Wooden shelters as well as fireplaces are available. There is a river with a small sand beach nearby. There are long drop toilets. Price was (2017) €1,50 per vehicle, 1€ per person and 1€ per tent. Children are free. The friendly owner(?) comes by at some point to collect the fees. We didn't pay anything. The place was for free (2020)","location":{"latitude":54.122113,"longitude":24.306155},"category":{"name":"Informal Campsite"}},{"id":40876,"name":"Scenic Camping Spot By The River","date_verified":"2019-09-02T14:15:34.861Z","description":"Scenic camping spot in a beautiful pine forest next to a river bend. A bit littered, though. There is a main spot with a shelter and fireplace and a small beach, which is frequented by locals. There are more spots down the path, which are more quiet. Access is by a forest road which turns off from the main road west of the place. ","location":{"latitude":55.0088077,"longitude":25.8077086},"category":{"name":"Wild Camping"}},{"id":40963,"name":"Kerocio","date_verified":"2017-08-13T00:00:00.000Z","description":"There are multiple spots to camp around this small lake surrounded by forest. Beware of party people on summer weekends.","location":{"latitude":55.2243714,"longitude":25.9382473},"category":{"name":"Wild Camping"}},{"id":41036,"name":"Pakasas lake wild camp","date_verified":"2017-08-14T14:26:14.502Z","description":"From village Seiminiskes entry through off-road pathway","location":{"latitude":55.39219,"longitude":25.94831},"category":{"name":"Wild Camping"}},{"id":41037,"name":"Ginuciai tent camp","date_verified":"2017-08-14T00:00:00.000Z","description":"Nice place with wooden tables benches sheds anr firewoods.","location":{"latitude":55.39326,"longitude":25.98457},"category":{"name":"Established Campground"}},{"id":41116,"name":"Sunny Nights camping","date_verified":"2023-05-11T00:00:00.000Z","description":"Welcome to Sunny Nights Camping ! :)\r\n\r\nThe Sunny Nights camping is perfectly situated on the E77/A12 road going from Šiauliai to Riga. While being here, you can visit the famous Hill of Crosses which is 19 km away, the Jakiškės manor, an old wooden chapel or the Žagarės Regional park, which are also close by.\r\n\r\nThe camp site is the perfect place to relax and have a good time :)\r\n\r\nIn our camp site, you’ll appreciate a picnic in our old apple garden, have a nice barbecue on the outdoor grill or cook in a well-furnished kitchen. Then, you’ll get some rest in the guest room or on the terrace while using the free wifi, you will meet nice people and enjoy coffee, tea and some sweets. Others activities you can do in here are : swimming in the lovely pond attached to our garden or even better, enjoying the traditional sauna (with additional fees).\r\n\r\nFor the more adventurous, we offer bikes to rent so you can explore around; there are special paths \u0026 routes or you can cycle along village roads wherever you like.\r\n\r\nIf you don’t like to camp, maybe you’ll prefer to stay in our comfortable beds in a unique 100 years old house, check our hostel accommodation options ! ;)\r\n\r\nLast but not the least, you'll be friendly welcomed in this camping where you can try handmade apple cider !\r\n\r\nGPS: N56.156733, E23.533478\r\nAddress: Rygos street 12A, Gataučiai,\r\nJoniškis distr., Lithuania, E77/A12 Road\r\nE-mail: sunnynightscamping@gmail.com\r\n☏ +370 626 06735\r\n\r\nNote - access by normal 3.5 tonne motorhomes is fine, but suggest larger or heavier vehicles should make contact first to check","location":{"latitude":56.157,"longitude":23.5339},"category":{"name":"Established Campground"}},{"id":41261,"name":"Free Place To Camp","date_verified":"2023-09-02T00:00:00.000Z","description":"A bit uninspiring place, but free nevertheless.","location":{"latitude":55.33198,"longitude":26.10592},"category":{"name":"Informal Campsite"}},{"id":41265,"name":"Almajo","date_verified":"2021-08-17T00:00:00.000Z","description":"This place is a gem. Located in a beautiful forest right next to a lake. There are numerous spots to camp, with benches, fireplaces and pit toilets provided. Also, there are wooden docks for swimming. Overall, this site is very well maintained. We paid €6 per night for an adult and a child, a car and a tent.","location":{"latitude":55.390849,"longitude":25.986688},"category":{"name":"Informal Campsite"}},{"id":41267,"name":"Lakajos Ezero","date_verified":"2020-08-12T00:00:00.000Z","description":"Beautiful site on a small peninsula in a lake, covered by forest. Nice and quiet. Long drop toilets were ... full at the time we visited, so bring a shovel.\r\n\r\nAccess is by a narrow, winding path with protruding tree roots. It's doable for normal cars with decent clearance, but lowered vehicles and bigger rigs might struggle.","location":{"latitude":55.152395,"longitude":25.779071},"category":{"name":"Informal Campsite"}},{"id":41268,"name":"Baidaremis","date_verified":"2019-08-02T07:16:02.241Z","description":"Camp site on a paddock with old apple trees. Provides a shelter, fireplace and long drop toilet. There's a small stream running across the property. There's a sign with a teleplone number written on it that you're supposed to call when you intend to stay. The guy doesn't speak any English, so we texted him an Google-translated message, which worked well enough. He didn't even want any money from us.","location":{"latitude":54.5418238,"longitude":24.3896247},"category":{"name":"Informal Campsite"}},{"id":41303,"name":"Place next to a river","date_verified":"2023-07-26T00:00:00.000Z","description":"The dirt road leads to a river in a valley where we felt save to camp. It was quiet and you'll find some picknick tables, too.","location":{"latitude":55.29335,"longitude":24.852785},"category":{"name":"Wild Camping"}},{"id":41356,"name":"Camping Girele","date_verified":"2017-08-18T00:00:00.000Z","description":"Not exactly a campsite.\nIt has a tarmac area with electrical hook up, mainly for campers and is all part of a hotel complex.\nNo kitchen but very nice log cabin with chairs and bathroom / shower and separate toilet for use if campers.\nWifi is good.","location":{"latitude":55.99855748941749,"longitude":23.383855931482636},"category":{"name":"Established Campground"}},{"id":41454,"name":"Trakai Island Castle","date_verified":"2017-08-21T07:01:01.383Z","description":"Trakai Island Castle (Lithuanian: Trakų salos pilis) is an island castle located in Trakai, Lithuania on an island in Lake Galvė. The construction of the stone castle was begun in the 14th century by Kęstutis, and around 1409 major works were completed by his son Vytautas the Great, who died in this castle in 1430. Trakai was one of the main centres of the Grand Duchy of Lithuania and the castle held great strategic importance.","location":{"latitude":54.6525,"longitude":24.93389},"category":{"name":"Tourist Attraction"}},{"id":41455,"name":"The hill forts of Kernavė","date_verified":"2019-09-02T17:08:18.220Z","description":"Kernavė is the first capital of the Grand Duchy of Lithuania mentioned in historical chronicles (the second half of the 18th century). The hill forts of Kernavė are unique in the entire Baltic Sea region, as there are five on just one location. An impressive view of the turns of the Neris River, the island of the river and its banks open from it. The Archaeological and History Museum of Kernavė in which artefacts of the ancient times found during the excavations carried out in the course of several decades are collected, is also a location that attracts crowds at midsummer and on the Days of Living Archaeology in July, celebrating ancient crafts every year. During these Days masters of ancient arts from Lithuania and neighbouring countries – boot makers, potters, glaziers, jewellers, blacksmiths, furriers, beekeepers and others show their skills and sell their products. During the festival a demonstration medieval fights and concerts of ethnic music are held.","location":{"latitude":54.8825,"longitude":24.85139},"category":{"name":"Tourist Attraction"}},{"id":41456,"name":"Pedestrian Bridge Over Širvena Lake","date_verified":"2017-08-21T07:26:36.818Z","description":"Širvėna Lake is the oldest artificial water body in Lithuania. In 1575, it came into existence following the building of a dam across two rivers running through Biržai for protection of both the fortress and the city. Stretched over a swampy area of nearly 400 hectares, the pond reliably protected the castle and the city from the north. Nowadays, the area of Širvėna Lake is around 325 hectares. Following the establishment of a linen factory in buildings of Astravas Manor in 1928, a 525-metre-long and 2.45-metre-wide footbridge has been built over Širvėna Lake to connect the Astravas Manor and the city of Biržai. It is the longest footbridge across a lake in Lithuania. Today, the footbridge is very popular with anglers and newlyweds, local people and visitors. It is a great place to admire views of the city, savour the calm tranquillity of the lake, and take a stroll to Astravas Manor.","location":{"latitude":56.21291,"longitude":24.76929},"category":{"name":"Tourist Attraction"}},{"id":41458,"name":"The geographical Centre of Lithuania","date_verified":"2017-08-21T07:49:59.405Z","description":"Ruoščiai is a small village in Kėdainiai district municipality, Lithuania. Located about 3 km from Dotnuva, it had 37 residents according to the 2011 census. The settlement is known as the geographical center of Lithuania, which was calculated in 1995.","location":{"latitude":55.33008,"longitude":23.90564},"category":{"name":"Tourist Attraction"}},{"id":41459,"name":"The Geographical center of Europe","date_verified":"2019-09-02T00:00:00.000Z","description":"Several countries claim to be at the heart of Europe, but according to the research of the French National Geographic Institute, the one and only geographical central point of the continent is in Lithuania, a fact that has even won recognition in the Guinness Book of World Records. In 1989, a group of French scientists from the institute announced that the geographical centre of Europe was just to the north of the Lithuanian capital Vilnius – 26 kilometres to be exact – near the village of Purnuškės. ","location":{"latitude":54.90639,"longitude":25.31889},"category":{"name":"Tourist Attraction"}},{"id":41463,"name":"Bikercamp Škilietai","date_verified":"2017-08-21T12:35:57.267Z","description":"Biker camping Škilietai is located in a protected nature reserve area and sits between two Skilietai lakes. This unique location offers beautiful landscapes, stunning forests, and clean waters. With all that in mind, capital city Vilnius is only 50km (30mi) away!\r\nCurrent campground capacity 40 is tents.","location":{"latitude":54.61712,"longitude":24.51163},"category":{"name":"Established Campground"}},{"id":41495,"name":"Paiešmeniai Camping","date_verified":"2017-08-21T00:00:00.000Z","description":"Nice place near VIA Baltica","location":{"latitude":56.1086,"longitude":24.48457},"category":{"name":"Established Campground"}},{"id":41628,"name":"Nidos Kempingas","date_verified":"2019-08-06T13:12:12.942Z","description":"In the administrative Neringa town centre Nida, between Parnidis (Big) dune and the Baltic Sea, near the old gliders` school and stone age settlement of Five Hills, Nida campsite is located. It is only several hundred metres to the snow-white beaches, to the Sundial with the observation deck, to the centre of the settlement.\r\n\r\n Places under pine trees. Its a touristic place therefore crowded and more expensive. We paid 28€ (2 pax and camper).","location":{"latitude":55.29837,"longitude":20.98218},"category":{"name":"Established Campground"}},{"id":41629,"name":"Medaus Slėnis","date_verified":"2023-05-07T00:00:00.000Z","description":"At the Honey Valley, we have adequate housing that includes a shower cabin, a TV, a bathroom and a kitchen available to our guests. The room rates are 10—20 €.. We have 4 rooms, 8 beds and a sauna.\r\n\r\nReservation is also available at booking.com","location":{"latitude":55.09183,"longitude":22.96335},"category":{"name":"Established Campground"}},{"id":41711,"name":"Parking next to lake","date_verified":"2018-11-10T21:01:24.277Z","description":"Parking space with small open cabin and benches. No facilities but nice open space in the woods close to a lake","location":{"latitude":56.20190904015321,"longitude":23.551818374566317},"category":{"name":"Wild Camping"}},{"id":41811,"name":"Camping Mindūnai","date_verified":"2017-08-26T00:00:00.000Z","description":"Mindunai Campsite provides excellent conditions for recreation, entertainment, water sports, and fishing. The camping has a parking area for campers with electricity and camper sewage and water refilling station. For those arriving with own boats, there is a special platform for lowering the boats into the water.\r\nThere are recreation zones with furniture and fire pits by the lake. Areas for tents and parking are available nearby.\r\nThe campsite has an administrative building with common areas: restrooms, showers, a laundry and a kitchen. There are 5 cosy buildings with all amenities on the first floor of the building. Free Wi-Fi is available in the administrative building and nearby. There are separate lodges for 6/8 people nearby, with a kitchen with crockery, a restroom, a shower, and a TV.\r\nThere is a sauna and a hot tub on the side of the lake for relaxing on long summer evenings. Those who like active recreation fill find a basketball and volleyball courts and a football fields to suit their needs. There is also a small playground for children on the campsite. The territory of the campsite is fenced, lit, and monitored by security cameras. There are kayaks, boats, bicycles, and more available for renting, firewood can also be purchased.\r\nThe Baltieji Latakai sightseeing tower is located nearby the campsite. Scenic views of the lake and the regional park open up from the top of the tower.","location":{"latitude":55.22007,"longitude":25.55984},"category":{"name":"Established Campground"}},{"id":41850,"name":"Kempingas Slenyje","date_verified":"2023-07-20T00:00:00.000Z","description":"Nice place close to a lake. Although the campsites are mostly without lake view.","location":{"latitude":54.6684916,"longitude":24.9287412},"category":{"name":"Established Campground"}},{"id":41851,"name":"Medaus  Slenis","date_verified":"2019-06-07T13:31:32.711Z","description":"Very nice campground with lots of green and small ponds. Relaxing surrounding. They sell exquisite Honey.","location":{"latitude":55.0915475,"longitude":22.9648223},"category":{"name":"Established Campground"}},{"id":41852,"name":"Kempingas Ventaine","date_verified":"2017-08-25T00:00:00.000Z","description":"Nice place with hotel and restaurant besides. However its a bit overpriced (5€ pP, 15€ for the Camper). And the showers are not in the best shape. ","location":{"latitude":55.3559386,"longitude":21.205482},"category":{"name":"Established Campground"}},{"id":41919,"name":"Lyduvėnai Bridge","date_verified":"2017-08-28T07:14:05.235Z","description":"The Lyduvėnai Railway Bridge (Lithuanian: Lyduvėnų tiltas) is one of the longest bridges in Lithuania. Total length 599 m","location":{"latitude":55.50611,"longitude":23.08556},"category":{"name":"Tourist Attraction"}},{"id":41920,"name":"Camping / picnic spot","date_verified":"2017-08-28T07:31:04.026Z","description":"This is one of the many free camping and picknick spots around this lake. Mostly wth primitive wc, tables and fire place. some have space for bigger rigs\r\n\r\n","location":{"latitude":55.48612,"longitude":25.26756},"category":{"name":"Informal Campsite"}},{"id":42036,"name":"Ferry \"Vilkynė\"","date_verified":"2017-08-30T00:00:00.000Z","description":"Ferry accross the river Nemunas\r\n\r\nhttps://www.youtube.com/watch?v=18tK4wyaSSg","location":{"latitude":55.03882,"longitude":23.5754},"category":{"name":"Vehicle Shipping"}},{"id":42037,"name":"Padaliai - Čiobiškis Ferry","date_verified":"2017-08-30T00:00:00.000Z","description":"Seld-driving ferry accross the river Neris.\r\n\r\nhttp://www.ciobiskiokeltas.lt/","location":{"latitude":54.94809,"longitude":24.67478},"category":{"name":"Vehicle Shipping"}},{"id":42152,"name":"Camping Papartis","date_verified":"2017-09-01T16:01:35.982Z","description":"The camping is basic but its situated marvellous. Near by a lake. We paid 25 € what is too much. Or: you pay about 10 € only for the beautiful landscape. ","location":{"latitude":55.1925999,"longitude":25.4777986},"category":{"name":"Established Campground"}},{"id":45124,"name":"Mekšrinis lake campsite","date_verified":"2018-08-29T00:00:00.000Z","description":"A campsite managed and looked after by Dzūkijos national park administration. There is one main campground and a smaller campsite east of the lake. In the main campsite vehicles must be left at parking site and camping equipment carried by hand. In a smaller campsite it doesn't restrict you from coming with a vehicle, but you must obey the laws and park visiting rules which can be found on the web page. In Lithuania vehicles are not permitted parking closer than 25 meters from running or standing water source.","location":{"latitude":54.1164,"longitude":24.47411},"category":{"name":"Wild Camping"}},{"id":45832,"name":"Camping Spot","date_verified":"2017-11-03T17:05:14.405Z","description":"There is a main spot with a shelter and fireplace and a small beach, which is frequented by locals. There are more spots down the path, which are more quiet.","location":{"latitude":54.77218,"longitude":24.68966},"category":{"name":"Wild Camping"}},{"id":45837,"name":"Camping Spot","date_verified":"2017-11-03T17:12:29.655Z","description":"There is a main spot with a shelter and fireplace and a small beach, which is frequented by locals. There are more spots down the path, which are more quiet.","location":{"latitude":55.21151,"longitude":25.4343},"category":{"name":"Wild Camping"}},{"id":55602,"name":"Apple Island","date_verified":"2018-06-05T00:00:00.000Z","description":"Apple island is a modern four star recreational park and event venue on the island of the Lake Grabuostas. A place for undisturbed recreation in nature, as well as an exclusive venue for your personal or business events.\r\n\r\nApple island offers a modern four star camping site and wide range of recreational activities. Indoor and outdoor event spaces are available for your corporate or personal events, a conference or seminar, a birthday or a wedding. Our staff will be happy to assist you in making your event a success.\r\n\r\nWe welcome you to our restaurant with terrace overlooking the island for refreshments, a light snack or a delicious meal. For families our nearby playground enables you to keep an eye on your children, while enjoying our delicious food and drinks.","location":{"latitude":55.16074,"longitude":25.31094},"category":{"name":"Established Campground"}},{"id":55603,"name":"Aisetas","date_verified":"2016-06-17T00:00:00.000Z","description":"Campground in the forest, near the lake Aisetas with a beautiful beach, equipped with fireplaces, tables with benches,\r\ngazebo, outdoor toilet, trash bins.\r\n  Rent of tourist and sports equipment: tents, kayaks, boats, bicycles, fishing equipment - echo fish finding, and other entertainment inventory.","location":{"latitude":55.29935,"longitude":25.72319},"category":{"name":"Established Campground"}},{"id":59365,"name":"Merkines NP campground","date_verified":"2018-05-10T00:00:00.000Z","description":"It’s an official campground designates by the National Park. There are toilets and benches. That’s all.","location":{"latitude":54.15821,"longitude":24.17496},"category":{"name":"Wild Camping"}},{"id":60297,"name":"Marijampole","date_verified":"2022-06-24T00:00:00.000Z","description":"Very nice place with Top Bath and a Lake fór Swimming. y\r\nYou can get electric power, running water and free WiFi. There is also a playground for Kids BBQ Stuff... If i remember right we payed for 2 motorcycles, 2 people and 2 tents not more than 20 € for one night.\r\n\r\n","location":{"latitude":54.52039,"longitude":23.34294},"category":{"name":"Established Campground"}},{"id":60433,"name":"national park designated campsite","date_verified":"2023-07-26T00:00:00.000Z","description":"Nice area with beach and benches. During daytime some local families visit","location":{"latitude":56.03824,"longitude":21.88439},"category":{"name":"Established Campground"}},{"id":61108,"name":"Grabučiškės","date_verified":"2023-05-27T00:00:00.000Z","description":"Very nice place, directly on bank of the lake. Very quiet. Good 4G/LTE coverage with Tele2.","location":{"latitude":54.89258946390347,"longitude":24.147294759772855},"category":{"name":"Wild Camping"}},{"id":61399,"name":"Parking lot just before Ukmerge","date_verified":"2018-05-28T00:00:00.000Z","description":"Parking lot in front of some companies. Quiet at night.","location":{"latitude":55.23896666666667,"longitude":24.730283333333333},"category":{"name":"Wild Camping"}},{"id":62901,"name":"Guest House - Nakvyne in Kalvarija","date_verified":"2018-05-20T00:00:00.000Z","description":"lovely place run by a charming man. Secured parking and just about a mile off the main road. He didn’t speak English but called his daughter, just as charming as her father. €15 for a night. Bargain. I would Highly recommend this place. ","location":{"latitude":54.406271931076276,"longitude":23.229494399757627},"category":{"name":"Hostel"}},{"id":63256,"name":"Campground and seating","date_verified":"2018-06-21T00:00:00.000Z","description":"One of several campground in conjunction with neighbouring river.\r\nThere is a squat loo available on the location. \r\nThere is a fire place and a covered seating area. Lots of space for tents, also a arranged parking space. Please use the parking space, don’t ruin the grass by driving on it. \r\n\r\nWater is clear and there is a small beach + barge to take a bath from. \r\n\r\nIt’s a part of the trans euro trail (for motorcycles). ","location":{"latitude":55.56793,"longitude":25.05794},"category":{"name":"Informal Campsite"}},{"id":63628,"name":"Baluosai","date_verified":"2018-07-03T00:00:00.000Z","description":"It is a simple place next to the lake. There are little wooden tables, fireplaces and kind of pit toilets (but they are full). Bring a shovel. Some people before used to leave their garbage here.\r\nThe way to get there is nothing for a big camper. We were the only ones. It is free of charge.","location":{"latitude":55.041202559746026,"longitude":25.572712979795856},"category":{"name":"Informal Campsite"}},{"id":63956,"name":"Viešintas","date_verified":"2018-07-06T00:00:00.000Z","description":"A very calm place next to the lake. There is an old small playground, a pit toilet and two fire places. It is free of charge. \r\nDuring the afternoon and early evening village people will go there for swimming or fishing. \r\n(In case it is rainy take care of mud when you use the place with heavy cars.)","location":{"latitude":55.69358756945161,"longitude":24.960702922777543},"category":{"name":"Wild Camping"}},{"id":64765,"name":"Salotas","date_verified":"2018-07-14T00:00:00.000Z","description":"An informal place at the lake. Very quite. At the last house at the trail they explained as the way. You follow the trail till there is a broken break with a sign \"private\". Pass it. You will find fire places and tables. There is no way marked at Google Maps. ","location":{"latitude":55.96700031902026,"longitude":22.286544649505178},"category":{"name":"Informal Campsite"}},{"id":64955,"name":"Girairiškių","date_verified":"2018-07-16T00:00:00.000Z","description":"Wonderful, clean and calm place next to the river Nemunas. Official picnic place and nice fishing spot. Fire place, pit toilet, workout trail, tables available. \r\nFollow the track through the wood. ","location":{"latitude":54.60266173729775,"longitude":24.003593079048652},"category":{"name":"Informal Campsite"}},{"id":65713,"name":"Mergakalnio","date_verified":"2018-08-04T00:00:00.000Z","description":"Viewpoint over the Sea with fireplaces and shelter with table and seats. Very quiet.","location":{"latitude":54.82463292,"longitude":24.24425856},"category":{"name":"Wild Camping"}},{"id":66430,"name":"Europos Parkas","date_verified":"2018-07-29T00:00:00.000Z","description":"Openair Museum with Sculptures from Artists over the hole World. The most is in the forest. Over 100 Exhibits.\n\nRestaurant and WC available.\n\nFor a extra Charge of €10.00 you can Stay with your Car inside for the night\n\nEntry : €9.00pP\nParking: €2.00/Car\nPhoto Permission: €1.50\n","location":{"latitude":54.82494341,"longitude":25.35329556},"category":{"name":"Tourist Attraction"}},{"id":66496,"name":"Bukonys Camping","date_verified":"2018-08-01T00:00:00.000Z","description":"By far the calmest and cleanest camping we visited in the Baltikum. Very friendly lady welcomed us immediately with little English and lots of sign language. Perfect kitchen and fish ponds to swim in. However, with 25€ for a small van a bit pricey, but worth it.","location":{"latitude":54.53506106050176,"longitude":23.453493034488943},"category":{"name":"Established Campground"}},{"id":66914,"name":"Tauro Kalno Panorama ","date_verified":"2023-05-13T01:07:18.000Z","description":"Free overnight spot 18.00 - 08.00. During the day it's 0,3€/h (sunday free)\r\nAbout 1km walking distance to the old town. The spot is next to a big Building (cafe) and a green parkarea. We parked here on a Friday and it got crowded and loud - so we parked behind the building where it was quiet.","location":{"latitude":54.68559,"longitude":25.26902},"category":{"name":"Informal Campsite"}},{"id":67282,"name":"Wisent Park (Bison's)","date_verified":"2018-08-07T00:00:00.000Z","description":"Nice Park with about 10 Wisents (European Bison). Worth a Visit. We camped on the parking Lot in Front of oft the Park. Very quiet here. ","location":{"latitude":55.55805999999999,"longitude":24.21734333333333},"category":{"name":"Wild Camping"}},{"id":68994,"name":"The Grey Dunes","date_verified":"2018-08-25T00:00:00.000Z","description":"Dunes on the little strip connecting Kaliningrad and Latvia. \r\nFor a Ford Ranger :\r\nFerry:28,30€\r\nPark entry: 20€ \r\nDune entry fee 2€ per person\r\n\r\nToo much money for a touristy spot, where you can't see hardly anything of the dunes. Change my mind but I didn't like it here.","location":{"latitude":55.44021093,"longitude":21.08798933},"category":{"name":"Tourist Attraction"}},{"id":69500,"name":"Trakiškio Campsite","date_verified":"2020-08-08T00:00:00.000Z","description":"Designated camp and recreation site near Ūla river. Couple of wooden benches with roofs, fireplaces, basketball and volleyball court, outhouse and litter station. Enough space for vehicles, no 4x4 requires. Stayed here in August and were complete alone. Very quiet and idyllic!","location":{"latitude":54.1459226343106,"longitude":24.385536378763447},"category":{"name":"Established Campground"}},{"id":71305,"name":"Valcu Nuoma, a place right at the lake","date_verified":"2021-08-11T00:00:00.000Z","description":"This is a place for campervans, looks like no tents, minimal infrastructure, pit toi only, but then right at the lake, 5min walk to the castle, we paid €10/night w/o power","location":{"latitude":54.64989536431593,"longitude":24.92607669431193},"category":{"name":"Established Campground"}},{"id":75887,"name":"into the wild","date_verified":"2018-10-10T00:00:00.000Z","description":"Nice, quiet and shady spot in the forest. Close to E47, but one can rarely hear it. No facilities but very peaceful.","location":{"latitude":54.45829677696713,"longitude":23.18365911339478},"category":{"name":"Wild Camping"}},{"id":79756,"name":"camp ground established by local community","date_verified":"2018-12-27T00:00:00.000Z","description":"nice place to stay for picnic. there are some tables and benches","location":{"latitude":55.55678,"longitude":25.37325},"category":{"name":"Wild Camping"}},{"id":79757,"name":"nice campsite by the lake","date_verified":"2018-12-27T00:00:00.000Z","description":"campsite with urban parking place for picnic","location":{"latitude":55.83625,"longitude":25.80562},"category":{"name":"Informal Campsite"}},{"id":79873,"name":"Rest Stop","date_verified":"2018-12-28T00:00:00.000Z","description":"a nice place to stay by the lake Asveja. Where you can stop for picnic, fishing or sightseeing. there is a hill across the bridge","location":{"latitude":55.0568,"longitude":25.44292},"category":{"name":"Wild Camping"}},{"id":79874,"name":"Campgroung","date_verified":"2018-12-28T00:00:00.000Z","description":"one of campsites around lake Sartai where you can stop to have a rest","location":{"latitude":55.77386,"longitude":25.82157},"category":{"name":"Wild Camping"}},{"id":80506,"name":"Vila Migla","date_verified":"2019-01-05T09:33:04.426Z","description":"Well built log house in Labanoras forest with the closed yard. Nearby fantastic clean lake Aisetas 16 km long. Drinkable water, WC, shower, fully equiped kitchen, bedroom with two double beds, internet inside the house. Free dry wood, grill place, warehouse in the yard. Suitable for up to four persons. Pets are allowed. The host is the producer of craft beer with the secondary fermentation in a bottle. Main atractions: berries, mushrooms, hiking, swimming, fishing, skiing, craft beer tasting.","location":{"latitude":55.30697642365033,"longitude":25.699170939648244},"category":{"name":"Hotel"}},{"id":80941,"name":"Ineigos stovyklavietė","date_verified":"2019-01-10T00:00:00.000Z","description":"The campsite is located by the river Būka, next to the road Vaišniūnai - Šeimatis - Tauragnai. For the convenience of the visitors, the campsite is equipped with gazebos, outdoor tables with benches, fireplaces, outdoor toilets, footbridge, changing room, information stand and other infrastructure. The campsite is reachable by car.","location":{"latitude":55.43714,"longitude":26.00078},"category":{"name":"Established Campground"}},{"id":89908,"name":"Park Camp","date_verified":"2019-04-18T00:00:00.000Z","description":"Beautiful lakeside, for tent, RVs and truck. simple toilet, BBQ and campfire places. staying for free!\r\nIveco 90-16","location":{"latitude":56.02268193749475,"longitude":21.828259322919234},"category":{"name":"Informal Campsite"}},{"id":90768,"name":"Viešintų poilsiavietė - Viešintai resort","date_verified":"2019-04-22T00:00:00.000Z","description":"A very calm place next to the lake Viešintas. There is an playground for kids, a pit toilets, volleyball and basketball courts and several summerhouses including fireplaces. It is free of charge. \r\nThere is a big parking place for cars.","location":{"latitude":55.68516,"longitude":24.97875},"category":{"name":"Wild Camping"}},{"id":90769,"name":"Šaukiškiai pit","date_verified":"2019-04-22T00:00:00.000Z","description":"Nice place to stay near lake where was old pit. Several small lakes are located near village Šaukiškiai. Around these lakes you can easily find some more places to stay for a rest, picnic or night.","location":{"latitude":55.77389,"longitude":24.72927},"category":{"name":"Wild Camping"}},{"id":93987,"name":"Liskiavio Krantas","date_verified":"2019-05-13T00:00:00.000Z","description":"Lovely spot, you need to cross an old ladies backyard, she asked €5 a night per person. There are covered places with benches and fireplaces. Spot is at a lake. ","location":{"latitude":54.10352869749911,"longitude":24.025617757640617},"category":{"name":"Informal Campsite"}},{"id":93988,"name":"Camping Karkelbeck ","date_verified":"2019-05-14T00:00:00.000Z","description":"Very nice camping with brand new facilities and nice owners. Just 500m from the sea. There is a warmed and covered kitchen where you can cook a meal or just sit when it’s cold. There’s a restaurant nearby. ","location":{"latitude":55.801501845022266,"longitude":21.07192040867028},"category":{"name":"Established Campground"}},{"id":93989,"name":"Kurtuvenai camping","date_verified":"2020-07-27T00:00:00.000Z","description":"Very nice place with all facilities you need. Including a washingmachine and kitchen. There’s is a little shop en a restaurant nearby. Beautiful surroundings. ","location":{"latitude":55.826603718955376,"longitude":23.04624351639458},"category":{"name":"Established Campground"}},{"id":93991,"name":"Kempingas Vilkoksnis","date_verified":"2019-05-21T00:00:00.000Z","description":"Nice campsite in national park at a lake with big fireplace, also cabins for rent. There is a kitchen. ","location":{"latitude":54.510361607958096,"longitude":24.698550491616245},"category":{"name":"Established Campground"}},{"id":94811,"name":"Sabalunku stovyklaviete","date_verified":"2019-06-02T00:00:00.000Z","description":"a nice place to stay for picnic near lake Luodis. there is a fireplace, parking place for your car, shelter - all you need to have a rest in a nature","location":{"latitude":55.57423,"longitude":26.15274},"category":{"name":"Established Campground"}},{"id":95726,"name":"Memelburg","date_verified":"2020-08-19T08:10:57.000Z","description":"Good spot to visit the city which is a 5 minute walk away. 60 cents for 240 minutes.  we spent the night here.  There is also parking if you carry on past this spot towards the harbour.  The city is well worth a visit.","location":{"latitude":55.704984059985165,"longitude":21.13036966569267},"category":{"name":"Informal Campsite"}},{"id":95940,"name":"City Parking","date_verified":"2019-06-11T00:00:00.000Z","description":"Perfect spot to explore the city. Next to Kaunas castle. 60 cents for an hour.  Free parking between 18.00 and 08.00. No problem spending the night but it's very noisy.  Toilets 70m away. River and grassy area bordering the carpark.","location":{"latitude":54.89998515837049,"longitude":23.88726489164349},"category":{"name":"Informal Campsite"}},{"id":96508,"name":"Exhibition centre","date_verified":"2019-06-15T00:00:00.000Z","description":"Relatively quiet place at Litexpo.  Close to the river and nice area to walk the dog. ","location":{"latitude":54.677369861056015,"longitude":25.227052898780876},"category":{"name":"Wild Camping"}},{"id":96759,"name":"Stanka Lake","date_verified":"2019-06-18T00:00:00.000Z","description":"Nice little parking right next to the lake. ","location":{"latitude":54.588120245624026,"longitude":24.702148035578873},"category":{"name":"Wild Camping"}},{"id":97077,"name":"Parking on the beach","date_verified":"2021-08-12T00:00:00.000Z","description":"Nice parking next to the beach. Quiet during the day and deserted at night.\r\nVery clean toilets available.","location":{"latitude":55.54111495967905,"longitude":21.100192752396907},"category":{"name":"Wild Camping"}},{"id":98414,"name":"Great NP campsite on Lake","date_verified":"2022-09-11T00:00:00.000Z","description":"Berzynelis National Park campsite. Gorgeous open spot in the forest on the lake with benches and fire pits. Great access for swimming in the lake. Feels a bit off the beaten track with a few locals on the weekend. \r\nWe had a lcoal guy pass by for Stand Up Paddle baord rental. Eur 8/hr/pp. \r\n","location":{"latitude":56.02523478218915,"longitude":21.83654411697931},"category":{"name":"Informal Campsite"}},{"id":101404,"name":"Hostel Chocolate","date_verified":"2019-07-16T00:00:00.000Z","description":"12 euros on night with secured parking. hot shower fast Wi-Fi. Even some free tea. close to the downtown! a little bit cheaper if you booked through booking.com","location":{"latitude":54.89972305,"longitude":23.89220673},"category":{"name":"Hostel"}},{"id":101405,"name":"Russian Bunker","date_verified":"2019-07-16T00:00:00.000Z","description":"super cool Bunker in the middle of nowhere. Probably able to camp hear but also able to go hiking and exploring.","location":{"latitude":55.13036502,"longitude":24.63943335},"category":{"name":"Tourist Attraction"}},{"id":101406,"name":"Lookout Tower","date_verified":"2019-07-18T00:00:00.000Z","description":"really cool tower overlooking a swamp. Great to look at the sunset with the birds flying over the lakes. also possible to camp here in the parking lot more in the park. ","location":{"latitude":56.24688478,"longitude":24.69045797},"category":{"name":"Tourist Attraction"}},{"id":101503,"name":"Parking lot with sea access","date_verified":"2019-07-22T00:00:00.000Z","description":"Parking surrounded by a forest and with sea access (5min walk). Toilet open from 8am to 10pm. We slept two nights here with many other campers without any problem.","location":{"latitude":55.420508,"longitude":21.060607},"category":{"name":"Informal Campsite"}},{"id":102188,"name":"Filoria hostel","date_verified":"2019-07-27T00:00:00.000Z","description":"8 Euros a night for a nice hostel with a kitchen as well as parking. beds a bit hard but definitely a nice place","location":{"latitude":54.68417475,"longitude":25.3055285},"category":{"name":"Hostel"}},{"id":102910,"name":"cosy Beach next to a parking place","date_verified":"2021-08-13T00:00:00.000Z","description":"Right next to an overland road there is a small parking place next to the Memel. The Sandy Beach invites for a picknick. We camped there one night, directly next to the parking, but you can also go Further into the high grass and find some places to camp ","location":{"latitude":55.09024386607494,"longitude":22.8808984284342},"category":{"name":"Wild Camping"}},{"id":102953,"name":"parking as Alternative to camp","date_verified":"2019-07-31T00:00:00.000Z","description":"large parking space for all sorts of vehicles. in Main season campground can be Full. here you can buy a ticket for 3Euro 24hrs parking. good Alternative, of course not facilities.","location":{"latitude":55.30118026921847,"longitude":20.9895280423596},"category":{"name":"Wild Camping"}},{"id":103127,"name":"SAULĖTEKIS camp","date_verified":"2019-07-19T00:00:00.000Z","description":"Nice camp at the lake. Nobody here. Have to call when arrival but no english. ","location":{"latitude":54.094113512839094,"longitude":23.725850303998385},"category":{"name":"Established Campground"}},{"id":103930,"name":"Lakeside","date_verified":"2023-07-21T00:00:00.000Z","description":"Small lake with picnic table. Very quiet.","location":{"latitude":55.563332,"longitude":24.1330542},"category":{"name":"Wild Camping"}},{"id":107164,"name":"Lake Lukstas","date_verified":"2019-08-31T00:00:00.000Z","description":"Small parking surrounded by forest, right next to a lake. Unfortunately lots of vegetation restricting the view of the lake. The place is very frequently visited by locals, mostly fishermen but also campers, all very friendly but as usual - quite loud during the weekends. Be sure to bring earplugs. :)\r\nGood for one night.","location":{"latitude":55.69533239666529,"longitude":22.330783221176763},"category":{"name":"Wild Camping"}},{"id":107253,"name":"Meadow next to campsite","date_verified":"2019-09-01T00:00:00.000Z","description":"A large peaceful grassy meadow about 100m south of a small official (but free) campsite in the National Park. \r\nThe campsite have firepits and tables/benches under a roof if you would choose to stay there. There is a new dirt road, which seems to end at the meadow. Couldn't find the new road on any maps 09/2019 but the old narrow forest road is fine for smaller 2WD, at least coming from the north. This campsite is as of today not necessarily suitable for bigger campers because of the narrow road in. ","location":{"latitude":54.08590949714331,"longitude":24.495876983341976},"category":{"name":"Wild Camping"}},{"id":107308,"name":"River Night","date_verified":"2023-08-12T00:00:00.000Z","description":"Grassy area direct at the river. There are some canoe tourists arriving here. Fisherspot in the morning. But no problem at all. Good for one night.","location":{"latitude":55.2953,"longitude":23.440901},"category":{"name":"Wild Camping"}},{"id":108950,"name":"Post office parking","date_verified":"2019-09-11T00:00:00.000Z","description":"Very quiet. Away from the high road. Surrounded by trees lawn flowers. Flat. Nobody paid any attention to us.","location":{"latitude":55.65915666666667,"longitude":26.057018333333335},"category":{"name":"Informal Campsite"}},{"id":113523,"name":"By the river","date_verified":"2019-10-23T00:00:00.000Z","description":"A small gravel road that leads past a watertreatmentplant (?) up to a WW2 memorial of the Jews in this area.\r\nDecent place to stay with a view over the river, a few cars coming and going in the evening and night, a few fishermen around in the morning. Lots of noise from the busy main road nearby, ear plugs recommended.","location":{"latitude":54.93179234943778,"longitude":23.642474427486388},"category":{"name":"Wild Camping"}},{"id":113898,"name":"Beach Tauragnai","date_verified":"2019-10-25T00:00:00.000Z","description":"A nice spot next to a small lake.\r\nThere is a small beach with benches and a fireplace. ","location":{"latitude":55.440622900857576,"longitude":25.808359389362415},"category":{"name":"Wild Camping"}},{"id":122442,"name":"River spot","date_verified":"2019-07-27T00:00:00.000Z","description":"wild camping spot right at the river \"Memel\" (\"Nemunas\"), not that easy to find but it is awesome. #mannitalks","location":{"latitude":54.93859,"longitude":23.63389},"category":{"name":"Wild Camping"}},{"id":122443,"name":"the awesome","date_verified":"2019-07-26T00:00:00.000Z","description":"a beautiful spot direct at a crystal clear lake close to an official camp site, table, seats and fireplace are available. The sign \"private\" just means that you have to pay approx. 7€ per night, you can continue the path and will find additional beautiful spots !","location":{"latitude":54.31245,"longitude":23.69763},"category":{"name":"Wild Camping"}},{"id":122444,"name":"the shelter","date_verified":"2023-09-13T00:00:00.000Z","description":"beautiful spot close to a lake with a small beach, jetty, fireplace and shelter with tables and seats (electrical power available). #mannitalks","location":{"latitude":54.65828,"longitude":23.40031},"category":{"name":"Wild Camping"}},{"id":122788,"name":"Kaunas reservoir forest ","date_verified":"2019-09-07T00:00:00.000Z","description":"A small playground at the lake. You can grill here, swim and enjoy the nature.\r\nFamilies come here at the weekend.","location":{"latitude":54.86288747120913,"longitude":24.043586931753968},"category":{"name":"Tourist Attraction"}},{"id":124165,"name":"Bugeniu poilsiaviete","date_verified":"2020-01-26T00:00:00.000Z","description":"Nice place, quait, for tent or camper. Hiking near river, childrens play ground. ","location":{"latitude":55.22431916241046,"longitude":24.738263325023247},"category":{"name":"Established Campground"}},{"id":129494,"name":"Wake beach parking","date_verified":"2020-04-02T00:00:00.000Z","description":"There are beach, wake park, boat ramp, sport field","location":{"latitude":55.729854449556655,"longitude":24.393427360993634},"category":{"name":"Informal Campsite"}},{"id":129495,"name":"4 parkas parking lot","date_verified":"2020-04-02T00:00:00.000Z","description":"Big parking, dogs carry walk zone, near lake and wake park, child carry place. ","location":{"latitude":55.7318804152211,"longitude":24.38416750119994},"category":{"name":"Informal Campsite"}},{"id":129622,"name":"Skaistakalnio adventure park ","date_verified":"2020-04-02T00:00:00.000Z","description":"Silent place for night near adventure park, some zio lines, childrens activitys, small lake and river, hiking track, 15min to town center. ","location":{"latitude":55.73282185570521,"longitude":24.379940902558456},"category":{"name":"Informal Campsite"}},{"id":129623,"name":"Tiltas camp site","date_verified":"2020-04-07T00:00:00.000Z","description":"Nice, silent in low season place near river Šventoji. Pedestrian bridge, nice nature, some hiking possibilities, firewood. ","location":{"latitude":55.659444293004086,"longitude":25.177771890809097},"category":{"name":"Informal Campsite"}},{"id":129632,"name":"Prigodo lake","date_verified":"2020-04-08T00:00:00.000Z","description":"Nice place near lake, fire place, pit toilet","location":{"latitude":55.68284401550474,"longitude":25.277326829075456},"category":{"name":"Informal Campsite"}},{"id":129649,"name":"Skaidrio lake campsite","date_verified":"2020-04-09T00:00:00.000Z","description":"Nice silent place, fireplace, clear lake, near road.","location":{"latitude":55.60105353750502,"longitude":26.35162868131823},"category":{"name":"Established Campground"}},{"id":129650,"name":"Zarasas lake view","date_verified":"2020-04-09T00:00:00.000Z","description":"Bridge with nice view, all season visitors object, coin toilet.","location":{"latitude":55.728041711167855,"longitude":26.2440842550985},"category":{"name":"Tourist Attraction"}},{"id":129728,"name":"Lake Sartai free camp","date_verified":"2020-04-09T00:00:00.000Z","description":"Nice place, little windy, but silent. Some hiking tracks","location":{"latitude":55.780593745986835,"longitude":25.827683843241303},"category":{"name":"Informal Campsite"}},{"id":129822,"name":"Old train bridge","date_verified":"2020-08-03T16:24:14.000Z","description":"Nice place near river, nice view, historical bridge, fireplace","location":{"latitude":56.33961756358107,"longitude":22.239485424218806},"category":{"name":"Informal Campsite"}},{"id":129842,"name":"Beach","date_verified":"2020-04-19T00:00:00.000Z","description":"Nice place, sometimes windy, cross old reacreation base for find this place in South side Pervalka. ","location":{"latitude":55.40179166553239,"longitude":21.093519067757523},"category":{"name":"Wild Camping"}},{"id":129868,"name":"Preila village end","date_verified":"2020-04-19T00:00:00.000Z","description":"Quait place in the end of village. Hiking and bicycle track to Nida or Pervalka, small beach, alot birds. ","location":{"latitude":55.367452420825316,"longitude":21.056687960382803},"category":{"name":"Wild Camping"}},{"id":129927,"name":"Rambynas mount","date_verified":"2020-04-21T00:00:00.000Z","description":"Nice place, fireplace, near river Nemunas, border to Russia. Some hikings, quiet place. ","location":{"latitude":55.087423995354776,"longitude":22.01840684328459},"category":{"name":"Wild Camping"}},{"id":129932,"name":"Naftos dujos","date_verified":"2020-04-22T00:00:00.000Z","description":"No problem with refill all types of gas tanks","location":{"latitude":55.243320062216675,"longitude":22.2531550012686},"category":{"name":"Propane"}},{"id":129947,"name":"Raudone castle","date_verified":"2020-04-22T00:00:00.000Z","description":"Best place for night near river Nemunas. Hiking to castle Raudone, not so noisy from road, many spots for stay. ","location":{"latitude":55.09473212960806,"longitude":23.113645250776912},"category":{"name":"Wild Camping"}},{"id":129954,"name":"Oreivių užuovėja","date_verified":"2020-04-24T00:00:00.000Z","description":"Air baloon team village. Nice place, friendly owners with his history and hand made rooms. ","location":{"latitude":54.94398558815058,"longitude":24.91739743413687},"category":{"name":"Established Campground"}},{"id":130225,"name":"Campsite near Auslas lake","date_verified":"2020-05-10T00:00:00.000Z","description":"Nice campsite with shelter on lakeside, few facilities. Contact +37067573934. We've paid low season price - 5 eur/person for staying in own tent.","location":{"latitude":55.72386,"longitude":26.12001},"category":{"name":"Established Campground"}},{"id":131272,"name":"Lake Luoka camping","date_verified":"2020-05-29T00:00:00.000Z","description":"A nice place to stay overnight or have a picnic near Luoka lake.","location":{"latitude":56.00099,"longitude":21.95468},"category":{"name":"Wild Camping"}},{"id":131274,"name":"Wild camping near Akmena river","date_verified":"2020-05-30T00:00:00.000Z","description":"Nice place to stay near Akmena river where you enjoy listening to bird songs.","location":{"latitude":55.33998,"longitude":22.25396},"category":{"name":"Wild Camping"}},{"id":131340,"name":"Gaveikenai camp","date_verified":"2020-06-11T00:00:00.000Z","description":"Free place near lake, a lot of spots woth fireplaces","location":{"latitude":55.35379976201931,"longitude":26.103722016999885},"category":{"name":"Informal Campsite"}},{"id":131475,"name":"Lake Dringis camping","date_verified":"2020-06-18T00:00:00.000Z","description":"Wild camping near lake Dringis for picnic or camping","location":{"latitude":55.38263,"longitude":26.10933},"category":{"name":"Wild Camping"}},{"id":131477,"name":"Wind camping between lake Kretuonas and river Kretuonėlė","date_verified":"2020-06-19T00:00:00.000Z","description":"Wild camping between lake Kretuonas and river Kretuonėlė. There are several places for camping for your needs","location":{"latitude":55.27005,"longitude":26.08107},"category":{"name":"Wild Camping"}},{"id":131478,"name":"Wild camping near Kretuonas lake","date_verified":"2020-06-19T00:00:00.000Z","description":"Wild camping near Kretuonas lake for picnic or camping. Great place to spend time in nature","location":{"latitude":55.26546,"longitude":26.07882},"category":{"name":"Wild Camping"}},{"id":131640,"name":"Asalnų camp","date_verified":"2020-06-15T00:00:00.000Z","description":"Nice place, a lot of spots and fireplaces, children playing fields etc.","location":{"latitude":55.358271372378965,"longitude":26.042506907978897},"category":{"name":"Established Campground"}},{"id":131779,"name":"Kalviai camp ground","date_verified":"2020-06-24T00:00:00.000Z","description":"nice place to stay for picnic. There are some tables and benches with shelter by the pond. Kid's playground etc. Camp ground established by local community, but it's open for visitors.","location":{"latitude":55.76128,"longitude":25.4621},"category":{"name":"Wild Camping"}},{"id":131899,"name":"Tauragnai Valley","date_verified":"2020-06-26T00:00:00.000Z","description":"Great place to stay near lake Tauragnas.","location":{"latitude":55.44224,"longitude":25.82466},"category":{"name":"Wild Camping"}},{"id":132117,"name":"Čižiūnų vėjas","date_verified":"2023-05-29T00:00:00.000Z","description":"Safe, private area, for the night with a tent.","location":{"latitude":54.61272,"longitude":24.57024},"category":{"name":"Wild Camping"}},{"id":132438,"name":"Svilės's springs","date_verified":"2023-09-20T00:00:00.000Z","description":"campsite near Svilės's springs where you can stay or have a picnic. Popular place as people are coming to get some fresh water.","location":{"latitude":55.84025,"longitude":22.94245},"category":{"name":"Wild Camping"}},{"id":132643,"name":"Nevezis spot","date_verified":"2020-06-30T00:00:00.000Z","description":"Quait nice place near river Nevezis. Good place for one or two nights, clean water for swimmiing. ","location":{"latitude":55.740140468854555,"longitude":24.40105884955836},"category":{"name":"Wild Camping"}},{"id":132781,"name":"nice spot near the lake","date_verified":"2020-07-12T00:00:00.000Z","description":"Really nice spot, you can come with a car or anything else, you have 2 places near eatch other both really nice \r\n\r\n","location":{"latitude":55.78322553,"longitude":23.64761291},"category":{"name":"Wild Camping"}},{"id":132785,"name":"Pauolia's forest trail","date_verified":"2020-07-11T00:00:00.000Z","description":"Forest trail where you can walk in forest and take a rest or just stay for a picnic. More at:\r\n\r\nhttps://nesedeknamuose.lt/pauolios-misko-takas-dar-neatrastas-bet-vertas-demesio/","location":{"latitude":55.0332,"longitude":25.2034},"category":{"name":"Tourist Attraction"}},{"id":132853,"name":"Wild Camping in the Forest","date_verified":"2020-07-12T00:00:00.000Z","description":"Located 10 km north of Darbenai. 500 meters from the highway.\r\nA gravel road and then you turn right into the forest.\r\nSome nice spots to sleep. Very quiet. Only 2 cars passed by on the track all night.\r\n","location":{"latitude":56.016825000000004,"longitude":21.244430000000005},"category":{"name":"Wild Camping"}},{"id":133097,"name":"Countryside homestead \"Šniūrai\"","date_verified":"2020-07-16T00:00:00.000Z","description":"Nice little campground on private land. The nice lady living in the house offers us a place to stay. Next to a lake. You can rent a boat, use a hot tub or sauna. \r\nOne little house with two toilets and one shower. Washing machine and fridge is also there. ","location":{"latitude":55.221806595689024,"longitude":25.52854365865267},"category":{"name":"Established Campground"}},{"id":133374,"name":"Walking park","date_verified":"2020-07-10T00:00:00.000Z","description":"Nice place for half hour, some birds, wooden sculptures, wc. ","location":{"latitude":55.59023924309645,"longitude":23.083796631044887},"category":{"name":"Tourist Attraction"}},{"id":133576,"name":"Kastinis lake","date_verified":"2020-07-23T00:00:00.000Z","description":"Nice spot next to the lake. Benches and a bit play garden for children. At the moment we were there, there were two other couples of overlanders. Swimming. Free.","location":{"latitude":54.058632460204926,"longitude":24.422486088283698},"category":{"name":"Wild Camping"}},{"id":133688,"name":"Campground Vilnius City","date_verified":"2020-07-25T00:00:00.000Z","description":"For us ideal to fresh up. Water, clean toilets, emptying chemical toilet, washing machines, hot showers are available. Even electricity and fast WiFi. They call it a campsite, but it’s all on a former parking. We paid 22,00 euros for a night with two persons. All on tarmac. There were 12 others in high season. Not far from the city. The offer several tours to Trakai and Vilnius as well.","location":{"latitude":54.67442739070922,"longitude":25.227878136449867},"category":{"name":"Established Campground"}},{"id":133803,"name":"next to the river Memel","date_verified":"2020-07-27T00:00:00.000Z","description":"On a small hill (old castle) you can build your tent with a beautiful view on the river. Fishermen are not far. A place for campfire, benches and a table are near\r\nnext to the hill you could park your van.","location":{"latitude":55.07966397149282,"longitude":23.240800075177436},"category":{"name":"Wild Camping"}},{"id":133956,"name":"Kupiškis Lagoon","date_verified":"2020-07-28T00:00:00.000Z","description":"Nice place near Kupiškis Lagoon.\r\n\r\nThere are several penthouses for picnic. Pit toilet and fireplaces.","location":{"latitude":55.8768,"longitude":24.98778},"category":{"name":"Established Campground"}},{"id":134176,"name":"Sodyba Ošupis Šventojoje","date_verified":"2022-06-28T00:00:00.000Z","description":"Campsite on private ground. Expensive place!!!\r\n24 Euro for one night (2Persons, small tent, car)\r\nGood facilities, clean shower (only one for women and one for men), clean toilets, plus hair dryer for everyone. Big and clean kitchen. Little picnic huts all over the campsite.\r\n5 minutes walk to Baltic sea and sandy beach. \r\n","location":{"latitude":56.0149086,"longitude":21.077764},"category":{"name":"Established Campground"}},{"id":134293,"name":"Free Camping by the Nemunas River","date_verified":"2021-08-08T00:00:00.000Z","description":"Some good spots to camp and sleep.\r\nJust by the bridge of the Nemunas River.\r\nSandy beach. Some mosquitos but quiet at night.\r\nHas pit fire places that some irresponsible people use to put garbage.\r\nDON'T DO IT!!!\r\nHas 2 pit toilets and a covered picnic table and benches.\r\nYou can even take a bath in the river.\r\nPlease keep the camping places clean.","location":{"latitude":54.156925,"longitude":24.178215},"category":{"name":"Wild Camping"}},{"id":134382,"name":"Pragalvys","date_verified":"2020-08-04T00:00:00.000Z","description":"Nice place to stay next to small lake Pragalvys. Easy to find spot even for large campers. WC on site. Forest with some interesting stone sculptures nearby.","location":{"latitude":56.239688520380696,"longitude":22.71656599280936},"category":{"name":"Wild Camping"}},{"id":134758,"name":"noble resort","date_verified":"2020-08-08T00:00:00.000Z","description":"nice place to stay. There are several shelters including pit toilets and fireplaces. Big parking space and playground for kids.","location":{"latitude":55.2204,"longitude":26.1241},"category":{"name":"Wild Camping"}},{"id":135989,"name":"Druskininkai Camping","date_verified":"2020-08-28T00:00:00.000Z","description":"Fully equiped camping in the resort town of Druskininkai in southern Lithuania. Sites level, with e+w. Clean restrooms and showers. Small restaurant at the place. We payed 2 adults €19 pn, this includes the resort fee. D. is worth a visit, there are lots of spas. Close to D is Grutas Park, if you are interested in the soviet era. Shopping, cafes, all is close. Quiet.","location":{"latitude":54.008629051968455,"longitude":23.977488465607166},"category":{"name":"Established Campground"}},{"id":136130,"name":"Samanis lake","date_verified":"2020-08-31T00:00:00.000Z","description":"Wild camping down the road along the coast of Samanis lake.\r\n\r\nThere are several places with benches and tables with fireplaces. Pit toilet is nearby.","location":{"latitude":55.65542,"longitude":26.05643},"category":{"name":"Wild Camping"}},{"id":136131,"name":"Baidarės Anykščiuose","date_verified":"2020-08-31T00:00:00.000Z","description":"Place for camping or stay for a night. Owners are big fans of kayaking - you can rent a kayak and have great time in local rivers","location":{"latitude":55.60043,"longitude":25.05059},"category":{"name":"Established Campground"}},{"id":137015,"name":"Pajurio Kempingas - Camping by the sea","date_verified":"2020-09-15T00:00:00.000Z","description":"Proper camping which rents huts as well. Sites are with p+w. Good, clean restrooms and showers inside a solid building. There's a big kitchen, too and a room to eat your selfprepared meal. Terrain with lots of pine trees, shadow. Appr. 900 m walking distance to next beach. There's a train line nearby, so expect some noise. The camping itself is good and well kept; a nice lady in the reception. She speaks english well. We paid for 1 camper + 2 adults € 25.","location":{"latitude":55.76564275659621,"longitude":21.09351153485477},"category":{"name":"Established Campground"}},{"id":138899,"name":"Forest in front of Nemunas river","date_verified":"2020-09-26T00:00:00.000Z","description":"A nice spot in the forest, close to Kaunas, in front of Nemunas river. In this point, the river is enlarged so much that seems to be a lake. There are public tables and benches all around.","location":{"latitude":54.887078000677604,"longitude":24.15237845575512},"category":{"name":"Wild Camping"}},{"id":139027,"name":"Sravinaitis camp","date_verified":"2021-07-13T00:00:00.000Z","description":"Nice place near lake, silent, clean, good road. See photos for prices","location":{"latitude":55.38756289390962,"longitude":26.003640148878926},"category":{"name":"Established Campground"}},{"id":155185,"name":"Lost Place tiny place for one small camper","date_verified":"2021-07-24T00:00:00.000Z","description":"A tiny spot for one camper only but super romantic in front of a lost place ruine","location":{"latitude":55.26261760970493,"longitude":23.507199997431712},"category":{"name":"Wild Camping"}},{"id":155226,"name":"Happy Lake","date_verified":"2021-07-23T00:00:00.000Z","description":"Nice place on the river - quite and very beautiful. ","location":{"latitude":55.0439927867195,"longitude":23.556338064394478},"category":{"name":"Wild Camping"}},{"id":155419,"name":"Gamtos kišenėje","date_verified":"2023-05-10T00:00:00.000Z","description":"Milking sheeps (and more others animals) small farm \"Nature pocket\" is a unique place for relaxation, and for information about Lithuanian tradicional life in the farm. We can offer for you our green house or place for camper, car for your overnight stay in nature. A truly rustic Lithuanian breakfast, made from farm produce, awaits you. See you soon ?","location":{"latitude":56.08741,"longitude":23.28681},"category":{"name":"Established Campground"}},{"id":156340,"name":"Beach place","date_verified":"2022-08-04T00:00:00.000Z","description":"There are many wild camping spots in the river. This one is one of our favorite. It’s nice for swimming and although nice to have a bonfire here. The way is off road and only for small rigs or a sprinter. ","location":{"latitude":55.083948355219405,"longitude":22.9298253357624},"category":{"name":"Wild Camping"}},{"id":175065,"name":"Parking Spot on Ocean side","date_verified":"2022-05-06T00:00:00.000Z","description":"Nice parking spot on the ocean side of the island.\r\n50m to the beach.\r\n","location":{"latitude":55.37705581171763,"longitude":21.033271802679685},"category":{"name":"Wild Camping"}},{"id":176066,"name":"Fairytale Camp","date_verified":"2023-09-21T00:00:00.000Z","description":"Extremely beautiful official campsite for free. Situated in the forest right next to a lake. One of the nicest spots we've camped so far in Europe. ","location":{"latitude":53.97761688,"longitude":23.80328163},"category":{"name":"Wild Camping"}},{"id":180991,"name":"Arzuolupiai","date_verified":"2022-06-25T00:00:00.000Z","description":"A Lake with swimming place + parking and allowed camping. Basic toilets without water","location":{"latitude":54.94589941,"longitude":23.08538739},"category":{"name":"Wild Camping"}},{"id":181122,"name":"Genys Camping","date_verified":"2022-06-26T00:00:00.000Z","description":"A nice official campground. Swimming place, lavatories, kitchen, tables and chairs. Welcoming owner. We paid 24€ for 4 people, 2 tents.","location":{"latitude":55.07938182,"longitude":22.78426729},"category":{"name":"Established Campground"}},{"id":181286,"name":"Kintai","date_verified":"2023-05-08T00:00:00.000Z","description":"A swimming place equipped with a bird observation tower, benches, pit toilet and rubbish container. Informal campsite: caravans and mobile homes stay there. ","location":{"latitude":55.41696107,"longitude":21.25034733},"category":{"name":"Wild Camping"}},{"id":181841,"name":"Place next to Tower of Labūnava Manor","date_verified":"2022-06-25T00:00:00.000Z","description":"A bit off the busy street, tent can be put behind some trees. \r\nThere is a Tower Monument which can be visited, but not very popular therefore we did not encounter anyone.","location":{"latitude":55.17806,"longitude":23.88374},"category":{"name":"Wild Camping"}},{"id":185344,"name":"Beautiful spot at the lake","date_verified":"2022-07-27T00:00:00.000Z","description":"Small half-Island with lots of room for tents and a small picnic bench\r\n\r\nbeautiful view of the sunset\r\n\r\nthe entry is blocked by big boulders, we were just able to squeeze through on medium size motorbikes, boxers might be too wide.\r\n\r\n(big) rigs can park just before the boulders (see second picture)\r\n\r\nin the morning, some fishermen came to the island but they did not mind (and did not speak any English)","location":{"latitude":54.64178,"longitude":22.98569},"category":{"name":"Wild Camping"}},{"id":186305,"name":"Londris","date_verified":"2022-08-04T00:00:00.000Z","description":"Very clean laundromat with 4 good sized washing machines, 4 dryers and one extra large dryer. Payment is by the Londris app or using the touchscreen in the laundromat with a credit card. Soap is available for purchase as well. Washer costs 2.95 and regular size dryers are 3.50; extra large dryer is 4.75. There is no Wi-Fi,  no power sockets,  no attendant.","location":{"latitude":54.89554457,"longitude":23.89712568},"category":{"name":"Laundromat"}},{"id":186438,"name":"Camping at a lake","date_verified":"2022-08-05T00:00:00.000Z","description":"The camping ground is very spacious, fits several tents and smaller campervans. There are showers and toilets, a football field and a water tap with water for dishwashing etc.\r\nWe were 2 people and paid 15€ for a small car and a tent for one night. The owners live close by, are very friendly and speak english.\r\nThe campsite is very clean, the showers and toilets are not the newest but seem to be cleaned regularly and are in a relatively good and clean condition. Hot water for showering available.\r\nThere is a lake just across the road where you can swim, and not far away (300m maybe) is a resort with a lakeside beach, a volleyball court and more space for sitting and enjoying the view. \r\nRoad to get to the camping ground is not paved but still well accessible, we've seen people with a camper there so - should work :)","location":{"latitude":54.702279323274524,"longitude":24.900117427098408},"category":{"name":"Established Campground"}},{"id":187526,"name":"Lake of Tytuvėnai","date_verified":"2022-08-12T00:00:00.000Z","description":"Lake with plenty of space and trees for going Wil d camping. The lake is very beautiful with a wake park and beach volley field. There are people swimming in summer period till late. Good and free Wi-Fi and charging point for electronics devices. ","location":{"latitude":55.59380872390724,"longitude":23.209606037018357},"category":{"name":"Wild Camping"}},{"id":198703,"name":"Park in Rokiskis","date_verified":"2022-09-21T00:00:00.000Z","description":"We camped in the big park with our tent and it was no problem at all for the locals.","location":{"latitude":55.955791,"longitude":25.603791},"category":{"name":"Established Campground"}},{"id":198705,"name":"Mazikle ","date_verified":"2022-09-26T00:00:00.000Z","description":"Rest area in park next to a lake. Camping was not a problem at all ","location":{"latitude":54.770873,"longitude":24.68715},"category":{"name":"Established Campground"}},{"id":198706,"name":"Šuneliškių Ravas ","date_verified":"2022-09-30T00:00:00.000Z","description":"Nice place on the shore of the Kaunas sea (Memel). In the evening there were some fishermen, but they didn't care about our tent. Very nice sunset! :) \r\n\r\nCars can only park at the parking lot closeby. ","location":{"latitude":54.89941,"longitude":24.051484},"category":{"name":"Wild Camping"}},{"id":198707,"name":"Next to Memel river ","date_verified":"2022-10-01T00:00:00.000Z","description":"Camping space next to Memel river. Some fishermen around, but no problems! :) ","location":{"latitude":55.080073,"longitude":23.238119},"category":{"name":"Established Campground"}},{"id":198708,"name":"Rambyno Miškas","date_verified":"2022-10-02T00:00:00.000Z","description":"Very nice view point next to Russian border. Stairs goes down to Memel river. Very nice sunset! ","location":{"latitude":55.087734,"longitude":22.021102},"category":{"name":"Wild Camping"}},{"id":219783,"name":"Karkles kopos","date_verified":"2023-09-11T00:00:00.000Z","description":"Lovely small campsite,very relaxed, nice owner and good facilities. \r\nFree WiFi. ","location":{"latitude":55.81005166666667,"longitude":21.07366833333333},"category":{"name":"Established Campground"}},{"id":222717,"name":"meodow 2 / watchtower ","date_verified":"2023-05-30T00:00:00.000Z","description":"i was looking for the place next to the meadow.\r\n\r\ndid not find it.\r\n\r\nbut found this place next to the watchtower.\r\n\r\nbuitifull landscape.\r\nreally quit.\r\n\r\na lot of birds.\r\n","location":{"latitude":54.08785254626084,"longitude":24.498315160399653},"category":{"name":"Wild Camping"}},{"id":223897,"name":"Great place for free camping","date_verified":"2023-06-22T00:00:00.000Z","description":"Fitted place with fire place, picnic table, bench and dry toilet... All around a superb lake. \r\nThere are two water access pontoons. \r\nAll in self-service. \r\nPlease leave the place so clean : there are trash cans for that. \r\nWe were there on a Monday there was no one","location":{"latitude":54.001877854381725,"longitude":23.61726597842763},"category":{"name":"Informal Campsite"}},{"id":223898,"name":"next to the lake","date_verified":"2023-10-08T00:00:00.000Z","description":"At the end of the path there is a small beach with benches and a fire place.  we were there on a Tuesday it was super quiet. \r\npoint of vigilance the water is a little cloudy remember to filter it if necessary","location":{"latitude":54.370147577636956,"longitude":24.640565232298943},"category":{"name":"Wild Camping"}},{"id":224491,"name":"free camping spot ","date_verified":"2023-06-10T00:00:00.000Z","description":"Free camping place with picnic table, place of fire and access to the lake.  There are also dry toilets the place is great possibility of finding a quiet place even on weekends","location":{"latitude":55.17957620551868,"longitude":25.680048823562593},"category":{"name":"Wild Camping"}},{"id":226779,"name":"Čižiūnų vėjas","date_verified":"2023-06-11T00:00:00.000Z","description":"Safe, private place, overnight with a tent","location":{"latitude":54.61292043,"longitude":24.5698807},"category":{"name":"Established Campground"}},{"id":227960,"name":"Quiet Parking in the center of Vilnius","date_verified":"2023-07-03T00:00:00.000Z","description":"Parking spot right in the center. You Can stay overnight. \r\n0,7 euro/hour. The place is secured with camera surveillance. \r\nNo toilet, water or electricity\r\n","location":{"latitude":54.68693878834303,"longitude":25.294511439728474},"category":{"name":"Informal Campsite"}},{"id":228120,"name":"Hill of the crosses ","date_verified":"2023-07-04T00:00:00.000Z","description":"Manifesto of the Lithuanians on their freedom of religion, under the oppression of the USSR.","location":{"latitude":56.013878267385195,"longitude":23.407892346585683},"category":{"name":"Tourist Attraction"}},{"id":228145,"name":"Free parking","date_verified":"2023-07-05T00:00:00.000Z","description":"Close to Klaipeda, North battery and Amber beach. ","location":{"latitude":55.79147553076608,"longitude":21.07212661767478},"category":{"name":"Short-term Parking"}},{"id":233372,"name":"trailhead parking spot","date_verified":"2023-07-25T00:00:00.000Z","description":"Parking lot at the trailhead. Picnic tables, fireplace, pit toilet. Nice view of the lagoon. Several small camping cars were there staying overnight with us. Tents are not allowed though.","location":{"latitude":55.400725333333334,"longitude":21.238347833333332},"category":{"name":"Wild Camping"}},{"id":235013,"name":"Šlavanto","date_verified":"2023-08-04T00:00:00.000Z","description":"One of the few free public campsites in this area. Beautiful view over the lake, the campsite is a bit secluded from the lake shore. Picknick benches, fireplaces, long drop toilet. Unfortunately with the usual rubbish. \r\n\r\nNavigation may not take you to the right place. To get here, take the forest track that branches off the road heading northeast from Gudeliai, 400m after the intersection with road 134 (54.153896, 23.620136).","location":{"latitude":54.14956606,"longitude":23.6352328},"category":{"name":"Wild Camping"}},{"id":236726,"name":"Zeimelis Wild Camping","date_verified":"2023-08-14T00:00:00.000Z","description":"Nice place near small lake. Park free. No showers or electricity, there is a toilet.","location":{"latitude":56.26192091032863,"longitude":24.000151958316565},"category":{"name":"Wild Camping"}},{"id":237916,"name":"Molėtai Campsite","date_verified":"2022-08-22T00:00:00.000Z","description":"Small free campsite with a decent cell signal","location":{"latitude":55.21105,"longitude":25.5327},"category":{"name":"Established Campground"}},{"id":240422,"name":"Gauštvinio stovyklavietė","date_verified":"2023-09-06T00:00:00.000Z","description":"Very quiet place, in the middle of the countryside, picnic area.","location":{"latitude":55.65576749476325,"longitude":23.196407938606974},"category":{"name":"Wild Camping"}},{"id":241554,"name":"Camping near forest road","date_verified":"2023-09-13T00:00:00.000Z","description":"A spot in the middle of the forest next to a quiet forest road.","location":{"latitude":54.63957,"longitude":23.36232},"category":{"name":"Wild Camping"}}]