[{"id":6261,"name":"Camping Trsteno","date_verified":"2021-07-14T00:00:00.000Z","description":"Beautiful terrain under olive trees between Dubrovnik and Split","location":{"latitude":42.7136,"longitude":17.9778},"category":{"name":"Established Campground"}},{"id":6262,"name":"Camping Krvavica","date_verified":"2022-06-25T00:00:00.000Z","description":"Very full terrain. Not big camp. A lot of shade","location":{"latitude":43.3234,"longitude":16.9859},"category":{"name":"Established Campground"}},{"id":6263,"name":"Camping Cvetovic","date_verified":"2021-08-13T00:00:00.000Z","description":"Open terrain, cosy meeting room.","location":{"latitude":44.864,"longitude":15.6413},"category":{"name":"Established Campground"}},{"id":8633,"name":"Camp Zagreb","date_verified":"2022-08-06T19:15:29.000Z","description":"Located on a small lake just outside of Zagreb. They provide a shuttle into the city. Proper caravan park, and well designed. European prices. Very nice bathrooms and showers, washing machine and dishwashing station. No shade. 35 USD for caravan and 2 people. ","location":{"latitude":45.80195011109654,"longitude":15.82689288073762},"category":{"name":"Established Campground"}},{"id":9143,"name":"Auto camp Paradiso/Laguna","date_verified":"2019-09-17T06:03:28.303Z","description":"Very nice terraced campground with lots of shade provided by olive trees. Access to a small beach, showers, wifi. \nAbout 17 EUR for two people, a car and a tent. 45 kuna per person + 30 for a car with roof tent, in July and August. \nAccess road is narrow and steep, could be an issue for trailers/big rigs. Also very little maneuvering space.\nLots of mosquitoes at night (August)","location":{"latitude":42.60736502,"longitude":18.22757129},"category":{"name":"Established Campground"}},{"id":9171,"name":"Kupari Resort","date_verified":"2023-09-15T00:00:00.000Z","description":"An abandoned complex of 4 hotels next to Dubrovnik. By the beach.Public toilets are open during the day \nFresh water shower on beach.","location":{"latitude":42.61971,"longitude":18.19038},"category":{"name":"Wild Camping"}},{"id":11056,"name":"Camping Plitvice Zagreb","date_verified":"2015-11-29T20:08:10.780Z","description":"Old place and OK for transit otherwise do not go here. Off season we could shower in a room. Payed 150 KN per night for camping.","location":{"latitude":45.774033333333335,"longitude":15.877883333333333},"category":{"name":"Established Campground"}},{"id":17821,"name":"Gro≈ænjan - Beautiful Town","date_verified":"2016-06-11T14:45:35.000Z","description":"Gro≈ænjan is a really nice old mountain town you should visit if you are close! ","location":{"latitude":45.37907496564591,"longitude":13.723446065572764},"category":{"name":"Tourist Attraction"}},{"id":17882,"name":"Small Ruin Of Old Hotel With Place For A Camper","date_verified":"2022-07-27T00:00:00.000Z","description":"It's a old ruin of a hotel!? In the back is a place, with view over the ocean, where you could stay for a night! You have to decide if it's save for you...","location":{"latitude":45.13808,"longitude":13.62821},"category":{"name":"Wild Camping"}},{"id":17883,"name":"Wild camping with the the perfect view","date_verified":"2021-09-24T00:00:00.000Z","description":"Go down the street from ≈†i≈°an towards the beach! It's a dirt road with a lot of holes. Just follow it and when you are close to the beach find your spot, there are many perfect places! Back to the nature! I bet you'll love it...","location":{"latitude":44.85765055757468,"longitude":13.991372510803854},"category":{"name":"Wild Camping"}},{"id":17959,"name":"Camp Marta","date_verified":"2022-09-01T09:07:48.000Z","description":"Camp Marta is a small cosy camping just 1.5 km away from the beach! It's cheap and Marta, the owner is a super lovely person. Everything is clean and you have fresh water, bathrooms and a place to wash dishes, as well as a laundry. Little shops are close by.","location":{"latitude":45.04984,"longitude":14.48914},"category":{"name":"Established Campground"}},{"id":18193,"name":"Camp Bunica I","date_verified":"2019-05-03T11:02:47.000Z","description":"A small campground right in front of a little bay! Very cosy and the price is good! Fresh water, shower, toilets and a place to wash your dishes...","location":{"latitude":45.025458564092425,"longitude":14.885844206451331},"category":{"name":"Established Campground"}},{"id":18194,"name":"The Perfect View","date_verified":"2016-06-22T15:29:57.435Z","description":"Check out this place if you pass by! You will not regret it... ;) ","location":{"latitude":44.51633,"longitude":15.11615},"category":{"name":"Tourist Attraction"}},{"id":18195,"name":"Autocamp Rozac","date_verified":"2016-06-22T15:29:57.662Z","description":"A big campground just 20 minutes walk from the old centre of trogir! It has a beautiful beach right at the campground and a restaurant available! Beach bars are just 5 minutes walk away...","location":{"latitude":43.505677864927335,"longitude":16.25816375950003},"category":{"name":"Established Campground"}},{"id":18431,"name":"Camp Ciste","date_verified":"2019-08-27T13:41:17.779Z","description":"Great little campsite with its own beach. On site restaurant. Clean toilet/shower block. Shady terranced camp spots. Not brillant for pitching tents because of stoney ground, but can be done. Wifi is good but only at reception.","location":{"latitude":43.168599,"longitude":17.208709},"category":{"name":"Established Campground"}},{"id":18432,"name":"Camping Split","date_verified":"2023-04-05T00:00:00.000Z","description":"Nice campsite with all facilities and a couple of nice swim beaches. 23 euro 1 person, tent and car.\nThere is a easy bus to catch straight to the old city. 13kn cash each way per adult.","location":{"latitude":43.50385373,"longitude":16.5262918},"category":{"name":"Established Campground"}},{"id":18497,"name":"Overnight Stop","date_verified":"2019-05-07T14:46:38.849Z","description":"Handy flat gravel track, good for overnight stop if you sleep in your vehicle. The ground is to stoney to pitch tents. Easy access for two wheel drives or big rigs. Sea and mountain views.","location":{"latitude":44.76944077,"longitude":14.89925466},"category":{"name":"Wild Camping"}},{"id":18498,"name":"Free Wifi","date_verified":"2016-06-30T00:00:00.000Z","description":"Free wifi in square provided by city. .... .... ","location":{"latitude":45.32648,"longitude":14.44106},"category":{"name":"Wifi"}},{"id":18651,"name":"Autokamp Zalo","date_verified":"2019-08-22T21:00:23.247Z","description":"Nice little private campground on the beach. Extremely clean facilities (there is a lady standing in front of the toilet/shower block cleaning after every 'client'). Cost: 20 ‚Ç¨ for 2 and a van. The coast highway is next to the campground so it can get a loud at night.","location":{"latitude":44.42737134,"longitude":15.21326129},"category":{"name":"Established Campground"}},{"id":18698,"name":"A Place For Campers In The Heart Of Town","date_verified":"2019-08-23T00:00:00.000Z","description":"It's just a place for campers to stay in the heart of town, just found it at night! ","location":{"latitude":44.108542772051045,"longitude":15.232494911193132},"category":{"name":"Wild Camping"}},{"id":18699,"name":"Kite Spot Neretva","date_verified":"2023-11-24T00:00:00.000Z","description":"It's actually a kite spot. But here is a lot of space for camping and there are a lot of people doing so! So enjoy your time watching kiters or take a lesson! ","location":{"latitude":43.02069813948406,"longitude":17.44886859321729},"category":{"name":"Wild Camping"}},{"id":18749,"name":"Ponta Camping","date_verified":"2016-07-02T00:00:00.000Z","description":"teeny tiny place but perfect spot if you kite or windsurf since you can walk across the street and launch. nice resto \u0026 bar which may be why they are the most relaxed about the camping side of their business. If you want bigger more european style camping there are about 10 other places within 2km stretch so you can shop around first. if you are into wind sports there is second point 2km east with camping but was more crowded and they say wind a little better here","location":{"latitude":42.97916139,"longitude":17.10348959},"category":{"name":"Established Campground"}},{"id":19107,"name":"Autocamp Pisak Seline","date_verified":"2023-09-05T08:42:05.000Z","description":"Nice little campground next to the beach. Very clean facilities. Restaurant and shops nearby. Very quiet at night. Friendly owner. Cost: 20‚Ç¨ / 2 and a van.","location":{"latitude":44.27322295,"longitude":15.47752315},"category":{"name":"Informal Campsite"}},{"id":19626,"name":"Camp Marina","date_verified":"2016-11-09T14:20:13.789Z","description":"Shady campground. Great for booking a trip to the beautiful Krka NP. Can be noisy due to traffic passing by...","location":{"latitude":43.79976787608471,"longitude":15.943324221312947},"category":{"name":"Established Campground"}},{"id":19684,"name":"Solitudo","date_verified":"2018-07-17T08:50:38.873Z","description":"Big campsite, lots of shady places, very close to city center. Busstation around the corner. 5 min. walk to the beach. Tent, car, 2 pers. 45‚Ç¨ very expensive for what you get.....","location":{"latitude":42.661486691835016,"longitude":18.07056021878316},"category":{"name":"Established Campground"}},{"id":19819,"name":"Kamp Nevio","date_verified":"2023-06-03T00:00:00.000Z","description":"Big terraced camping with lots of shady spots next to the beach.... Price range from 10‚Ç¨ - 25‚Ç¨. No free WIFI","location":{"latitude":42.98174563333669,"longitude":17.201094338686392},"category":{"name":"Established Campground"}},{"id":20007,"name":"Autocamp Tabor","date_verified":"2016-08-04T11:50:14.960Z","description":"Brand new campsite near the beach and a harbour. Perfect spot!! Tent, car, 2 pers. ‚Ç¨26. Free WIFI. Not much shade, because just opened... üòä. ","location":{"latitude":44.23978133131213,"longitude":15.13540380635777},"category":{"name":"Established Campground"}},{"id":20314,"name":"Istralandia- Free Wifi + Toilets In Car park ","date_verified":"2017-08-15T00:00:00.000Z","description":"can get on the free wifi from the car park. Also toilets, ATM and money exchange ","location":{"latitude":45.347,"longitude":13.61824},"category":{"name":"Wifi"}},{"id":21840,"name":"Wild Camping with terraces","date_verified":"2019-09-04T19:57:06.000Z","description":"At the end it is possible to camp at the coast side between Svetica and Kavran (although there are signs that camping is forbidden.- okay maybe no one is checking it but we where undisturbed for one night.) We randomly decided for that place and it was perfect. The whole coast line is a camping mekka for locals and guests. For big rigs- maybe be the trees are disturbing.","location":{"latitude":44.86453318972593,"longitude":14.000489758340642},"category":{"name":"Wild Camping"}},{"id":21841,"name":"Parking space Lubenice","date_verified":"2022-08-16T00:00:00.000Z","description":"We parked for one night at the parking space in front of Lubenice. If you drive the small roads up to Lubenice you have to pay 15 KN for parking (one day), after that we visited the 15th best beaches of the world (hiking trail up to 40', you need proper shoes!) in the evening we ate at a beautiful restaurant in the town centre. after that having a vine on our camp ground and a safe night. enjoy! p.s.: if you buy a glas of honey from the old lady you have a friend in Lubenice.","location":{"latitude":44.887032858137864,"longitude":14.332083966596361},"category":{"name":"Wild Camping"}},{"id":21842,"name":"Fishermens Friend","date_verified":"2018-07-12T20:44:18.114Z","description":"It's a small harbour behind a hilly road; after asking a boats owner we stayed one night. ","location":{"latitude":45.06085969977552,"longitude":14.450045423595654},"category":{"name":"Wild Camping"}},{"id":22011,"name":"Lonesome Fox","date_verified":"2023-09-15T23:35:20.000Z","description":"After you took a curvy road down to an old stone mill you can decide if you wanna have the awsome view on the bridge between Island Krk and Rijeka or you wanna stay on a small more silent beach. We decided for the bridge one, the only neighbours are stone builders which start to work very early. It is a perfect ground to stay more then a day and maybe the lonesome fox will visit you at your first barbecue. If you stay on the other side there are left buildings from the old stone mill, !!!be aware there are open cable tunnels and canal system entries!!!","location":{"latitude":45.234219627497005,"longitude":14.57810263150798},"category":{"name":"Wild Camping"}},{"id":22012,"name":"Harbour with no noise right on the Adriatic","date_verified":"2023-09-17T11:38:40.000Z","description":"Get down from the main road 8/E65 and drive through an open barrier down the old road to the small harbour. Local fisherman are there in the evening hours and some wild dogs may visit you. In the morning we saw two dolphins near the harbour.","location":{"latitude":45.111683411565714,"longitude":14.832298178239569},"category":{"name":"Wild Camping"}},{"id":22198,"name":"Auto Camp Sirena","date_verified":"2022-06-05T00:00:00.000Z","description":"Very clean facilities, wonderful restaurant and staff, tiered camping right on the cliff whole way down to the water. 220 kuna for two adults, tent camping with kid. In high season, we came with no reservation and they found three possible spots for our tent. Electric available at site with Long extension, noticed people used communal refrigerators and the restaurant lets you use their open grill for free.","location":{"latitude":43.40607,"longitude":16.777},"category":{"name":"Established Campground"}},{"id":22273,"name":"Coast Camp","date_verified":"2023-06-07T00:00:00.000Z","description":"A very common place for bathing tourist and campers directly at the coast. Plenty of space around. \r\nBeautiful view on the see, little bit romantic at the evening with the sunset.","location":{"latitude":45.35166909,"longitude":13.53831816},"category":{"name":"Wild Camping"}},{"id":22630,"name":"Alex Free Camp","date_verified":"2018-07-30T00:00:00.000Z","description":"A small private camp ground. Close to the road, but in the woods. You can stay free or give the owner a donation. There are some fireplaces.","location":{"latitude":44.84894551,"longitude":15.40751083},"category":{"name":"Informal Campsite"}},{"id":22728,"name":"Grabovaƒça Parking","date_verified":"2022-10-05T00:00:00.000Z","description":"We met the park ranger in early evening and he said that the park is closed for today but we can sleep there and visit it tomorrow. So we did. \nA level, big gravel parking lot. Nice view an absolutely quiet. When the entrance is open there is a toilet. \nWater is available also when closed. \n","location":{"latitude":44.64264,"longitude":15.3635},"category":{"name":"Informal Campsite"}},{"id":30447,"name":"Olive Grove ","date_verified":"2017-03-02T00:00:00.000Z","description":"A few quiet roadside places to stop around here.  It's next to the road but no passing traffic when we camped in early March.  Amazing sunsets and views.","location":{"latitude":43.52296059489578,"longitude":16.001301761731504},"category":{"name":"Wild Camping"}},{"id":32563,"name":"Camping Ferry Bay","date_verified":"2017-03-29T11:05:22.000Z","description":"Nice campground under trees next to small bay and close to ferry dock. Was still closed in march but there was free parking right in front.","location":{"latitude":42.82236889940018,"longitude":17.678921911881936},"category":{"name":"Established Campground"}},{"id":32848,"name":"Wild Camping ","date_verified":"2016-09-10T09:39:46.000Z","description":"Nice Place near The Beach . Dirty Road ","location":{"latitude":44.9867458641948,"longitude":13.734675636527813},"category":{"name":"Wild Camping"}},{"id":32849,"name":"Wild Camping Im Wald","date_verified":"2019-04-26T00:00:00.000Z","description":"  Nothing in the area. 3 km into the forest then a large clearing on the right \r\n\r\nNichts in der Gegend. 3 km in den Wald fahren dann eine grose Lichtung rechts ","location":{"latitude":45.1116,"longitude":14.3354},"category":{"name":"Wild Camping"}},{"id":34925,"name":"Odmoree","date_verified":"2017-11-02T15:14:46.877Z","description":"All pitches have sea views. Only 13 pitches available. Full hook up, wifi, laundry facilities, kitchen. Modern and clean bathroom facilities. Modern amenities- power, drainage, water hook up. Pool and bar. Cabins and hostel also available. ","location":{"latitude":44.300359441008695,"longitude":15.289211142822438},"category":{"name":"Established Campground"}},{"id":35050,"name":"Igor ","date_verified":"2021-09-20T00:00:00.000Z","description":"Small beautiful campsite, situated by the sea. Open all year. Very friendly people.","location":{"latitude":44.283309266943746,"longitude":15.464389566346503},"category":{"name":"Established Campground"}},{"id":35254,"name":"Autocamp Skradin-Skorici","date_verified":"2019-05-05T00:00:00.000Z","description":"Free wifi, good amenities, quiet small campground, laundry. Nice owner","location":{"latitude":43.824369390535935,"longitude":15.911272075042046},"category":{"name":"Established Campground"}},{"id":38691,"name":"Kamp Slapic","date_verified":"2022-05-17T00:00:00.000Z","description":"Great campsite next to the beautiful river. Pitches for caravans and campers or space between the trees on the meadow on the banks of the river. Great swimming in a beautiful river or Kayak rental. Good restaurant onsite and very helpful reception !","location":{"latitude":45.420205341694334,"longitude":15.48337424175393},"category":{"name":"Established Campground"}},{"id":38783,"name":"Flat field next to the river","date_verified":"2023-11-19T00:00:00.000Z","description":"A nice spot, just off the main road next to the river. Not sure if this is an informal camping site or private property, tables are available and a small shelter. Steep access road.","location":{"latitude":45.12349330358684,"longitude":15.575521197184525},"category":{"name":"Wild Camping"}},{"id":39197,"name":"Small harbour","date_verified":"2019-04-27T07:29:30.874Z","description":"Small Harbour/rock beach with a small parking space. We met some official firemen and they told us we could stay!\nNo fires allowed. \nGreat place off season, not recomended during high season.\n\nPlace is graveled, may not be the best choice for tents","location":{"latitude":44.78576706260888,"longitude":14.446965493275268},"category":{"name":"Wild Camping"}},{"id":40089,"name":"Kamp Seget ","date_verified":"2017-08-01T15:49:02.470Z","description":"Nice friendly sight, clean facilities but gets very busy in July August.\n","location":{"latitude":43.526666666666664,"longitude":16.221333333333334},"category":{"name":"Established Campground"}},{"id":40091,"name":"Camp Krka","date_verified":"2023-05-23T00:00:00.000Z","description":"Friendly site, we arrived early so had a choice of pitches. \nLater very busy so choices limited.\nNot a huge amount of shade.\nHas a small swimming pool great to cool down.\nHas a washing machine.","location":{"latitude":43.800653885159456,"longitude":15.941889574766105},"category":{"name":"Established Campground"}},{"id":40466,"name":"Camp Korana ","date_verified":"2023-10-23T00:00:00.000Z","description":"Very big and very busy if you arrive late but can take up to 2000 people and don't take bookings.\nVery modern and clean facilities,\nWifi a bit slow as camp fills up but being here in August we could not expect it to be quiet.\nFree bus to NP at 0900 and return 1700 hrs.\nWashing machines available in the ladies restroom 40 kuna per wash.\nLittle bit expensive about 220 kuna for 2 adults with car and camping trailer, electricity included ","location":{"latitude":44.94723198008253,"longitude":15.638797609150073},"category":{"name":"Established Campground"}},{"id":40605,"name":"Campground at beach","date_verified":"2021-07-09T17:35:06.478Z","description":"Car parking near beach. Room for camper and big rigs. Parking 0900-2100 is 30 kuna. We arrived 2030 and were not charged anything. Adjacent restaurant and toilet.","location":{"latitude":45.11723663196444,"longitude":14.835123466341603},"category":{"name":"Informal Campsite"}},{"id":40781,"name":"Camping Opatija","date_verified":"2017-08-10T00:00:00.000Z","description":"Run down and not greatly maintained.\nA very big tree branch fell as we set up narrowly missing a caravan and pulling the electricity pole over.nothing like the website pictures, much more run down and the most expensive site we stayed at in Croatia at 220 kuna a night.\nSadly the site does not do just to its location at Opatija which is lovely.\nSaid it had a restaurant but we never saw it.\nCleaning carried out multiple times a day but the reception staff were miserable as sin and asking questions seemed to just annoy them.\nIf we had not been visiting friends we would not have stayed here\n ","location":{"latitude":45.3095,"longitude":14.2843},"category":{"name":"Established Campground"}},{"id":41295,"name":"Spot besides salty lake.","date_verified":"2021-07-23T08:00:19.636Z","description":"Its a very good Place to have a nigtht there. We stand Alpen here. The water ist Not so Deep so iTunes Not perfectly to swim. Ehen you Go 100meters everything is ok!","location":{"latitude":43.670570154221465,"longitude":15.944815151285027},"category":{"name":"Wild Camping"}},{"id":41368,"name":"Sea View","date_verified":"2020-02-19T09:39:24.040Z","description":"Directly on the road 20 meters to the sea \r\n\r\nDreamwater water Nixe place and surprice gor Go away!","location":{"latitude":43.6323292419743,"longitude":15.925173091415688},"category":{"name":"Wild Camping"}},{"id":41423,"name":"Sea view","date_verified":"2019-11-01T19:28:09.248Z","description":"Wonderful Place to sleep an swim and Picknick under The tree ","location":{"latitude":44.54448409231776,"longitude":15.049800241123855},"category":{"name":"Wild Camping"}},{"id":41916,"name":"camping ori","date_verified":"2020-07-05T00:00:00.000Z","description":"nice small camping with room dir 10 tents. private owned, 4 persons, 2 tents, 3 bikes 35‚Ç¨ per night..More @..www.RTWbyBIKE.com","location":{"latitude":43.4457827,"longitude":16.6341102},"category":{"name":"Established Campground"}},{"id":42195,"name":"Camping Kate","date_verified":"2023-05-17T00:00:00.000Z","description":"Nice camping area, access to beach, safe, clean showers. Paid 116 kuna (cash)  for 2 person, tent and a moto","location":{"latitude":42.62359520890063,"longitude":18.206531703489095},"category":{"name":"Established Campground"}},{"id":42415,"name":"Autocamp Navis","date_verified":"2020-09-10T00:00:00.000Z","description":"A very new, beautiful, small campground with a lot of places directly on the beach/sea. very clean and well maintained. for us the nicest and best campground along the croatia coastline.","location":{"latitude":44.33068,"longitude":15.36173},"category":{"name":"Established Campground"}},{"id":43430,"name":"Picnic Area","date_verified":"2023-08-06T00:00:00.000Z","description":"Nice picnic spot in an olive garden provided by the government. Flat spots for several cars and view of the ocean. little traffic. ","location":{"latitude":43.57223350802849,"longitude":15.959294935443914},"category":{"name":"Wild Camping"}},{"id":46837,"name":"Wooded beach side","date_verified":"2016-08-09T00:00:00.000Z","description":"Just off the main road. Quiet beach side visited by locals on weekends. Beautiful spot.","location":{"latitude":44.3762,"longitude":15.11667},"category":{"name":"Wild Camping"}},{"id":46994,"name":"Small stony beach between cliffs","date_verified":"2023-07-12T00:00:00.000Z","description":"Beautiful place for wild camping. The last part of the gravel road down requires 4wd and is a bit rough. Pretty isolated. ","location":{"latitude":44.252316666666665,"longitude":15.481466666666666},"category":{"name":"Wild Camping"}},{"id":53680,"name":"Camping Lolo","date_verified":"2019-06-13T00:00:00.000Z","description":"Sweet, cheap little campsite with space for tents and a few caravans, right near loads of restaurants on the sea.","location":{"latitude":44.29849,"longitude":15.09216},"category":{"name":"Established Campground"}},{"id":56071,"name":"Odmoriste Vrata Jadrana","date_verified":"2018-02-24T00:00:00.000Z","description":"Seasight, relatively quiet, WC, free WIFI, snack, shop, all carburants.","location":{"latitude":45.35492552914224,"longitude":14.352238336591377},"category":{"name":"Informal Campsite"}},{"id":58462,"name":"Slatine","date_verified":"2023-10-15T00:00:00.000Z","description":"it is 10 minutes from Slatine, it is at the end of the road a small car park very quiet, after you can still walk 10 minutes to see a small chapel and 10 more to be at the seaside. beautiful place !!! path in pebbles and gravel !!! not suitable for large motorhome","location":{"latitude":43.4842,"longitude":16.3686},"category":{"name":"Wild Camping"}},{"id":59168,"name":"bear camp","date_verified":"2019-07-05T10:02:14.000Z","description":"small camping (40) hot shower washmachine, on top of small hill. green grass. 130kuna for 2+motorhome. restaurant and small market 500m. in front of korona camping","location":{"latitude":44.94810012076115,"longitude":15.636688074869575},"category":{"name":"Established Campground"}},{"id":59392,"name":"Njivice camping resort","date_verified":"2018-05-11T00:00:00.000Z","description":"Nice big pitches, aparently not too busy in off-season.  Excellent in- or outdoor showers, ACSI card accepted.  Perfect for a one night stopover with everything you need closeby.  Nice views, lots of little concrete or pebble beaches around!","location":{"latitude":45.17195683908199,"longitude":14.543669018907979},"category":{"name":"Established Campground"}},{"id":60239,"name":"Camp Stine","date_verified":"2019-04-03T00:00:00.000Z","description":"Small but very nice camp directly by the sea. \nCamping pitches on different levels, most in the shade of olive and pine trees. Ability to swim, small bar, picnic tables, free wifi, clean facilities, washing machine. Very friendly owner and fair prices (about 15‚Ç¨ for 2 with camper). Only downside: it‚Äòs close to the coastal road.","location":{"latitude":44.322530667880194,"longitude":15.390780683499038},"category":{"name":"Established Campground"}},{"id":60240,"name":"Hodilje View","date_verified":"2022-05-23T00:00:00.000Z","description":"Nice place directly by the sea with a beautiful view. Close to the coastal road but well hidden from it. A small road runs down, last 50m gravel and almost level. \nA bit trash laying around, but a good stop for one night on the way from/to Dubrovnik.","location":{"latitude":42.86741667347047,"longitude":17.695540624912823},"category":{"name":"Wild Camping"}},{"id":60430,"name":"Bathing in the river spring jungle","date_verified":"2023-08-17T00:00:00.000Z","description":"Nice wild camp location at a river. There is a waterfall nearby and a spot where you can go into the clear water.\nThere are some more good spots for camping along the road to this place.","location":{"latitude":44.04311171,"longitude":16.25539518},"category":{"name":"Wild Camping"}},{"id":61767,"name":"Grasy area with ocean view","date_verified":"2019-09-13T00:00:00.000Z","description":"Nice big grasy area, a bit away from the road, hidden, no facilities, ocean view, no shade, no possibility to walk to the ocean","location":{"latitude":44.89933118,"longitude":14.40733581},"category":{"name":"Wild Camping"}},{"id":61771,"name":"Lonesome Beaches","date_verified":"2018-06-09T00:00:00.000Z","description":"Along the Coastline there are some spots where you can enjoy the beach without other people. It seems that they stick to the campsite beaches. This spot ist small but there are bigger ones If you go east","location":{"latitude":45.09556596,"longitude":14.44819075},"category":{"name":"Tourist Attraction"}},{"id":61772,"name":"Grasshopper and herbs overnight stay","date_verified":"2018-09-30T00:00:00.000Z","description":"big flat area, lonesome at night except some sheeps. Lots of Grasshoppers for the dogs to play","location":{"latitude":45.10396962,"longitude":14.30163711},"category":{"name":"Wild Camping"}},{"id":61813,"name":"Lubenice Beach","date_verified":"2018-06-12T00:00:00.000Z","description":"Wonderful beach with less people. You can reach it by boat or by walking a 1h trail down. Take a lot of water with you, there is no much shade on the beach. Consider going down early and hiking up late, because the trail is exposed to the sun.","location":{"latitude":44.8859,"longitude":14.3216},"category":{"name":"Tourist Attraction"}},{"id":61818,"name":"Camping Slamni","date_verified":"2019-04-26T00:00:00.000Z","description":"Small but very nice campground. About 45 pitches. Direct acces to the beach. may be private beach. With beach bar and small pool for children. Whirl pool also for adults. Very good restaurant.\nThe pitches are graveled, may not be ideal for tents.","location":{"latitude":45.15359340284597,"longitude":14.617414641473104},"category":{"name":"Established Campground"}},{"id":61931,"name":"between the scrubs","date_verified":"2018-06-12T00:00:00.000Z","description":"Not the nicest place, since there is a lot of garbage around, but hidden from the road, if you drive the little entrance a little to the back. ","location":{"latitude":44.68511443,"longitude":14.43256734},"category":{"name":"Wild Camping"}},{"id":62009,"name":"Camping Slapiƒç","date_verified":"2018-06-13T00:00:00.000Z","description":"Large campsite on a clean river with swimming areas. Discount with ACSI card. Modern sanitary. Subsoil: fortified meadow and gravel. Partial shadows through trees. Wifi is fast and free.","location":{"latitude":45.421013333333335,"longitude":15.484821666666669},"category":{"name":"Established Campground"}},{"id":62034,"name":"Lakeshore camp","date_verified":"2022-03-12T00:00:00.000Z","description":"nice little flat place, next to the lake at end of little dirtroad. Some trees,; windy, quiet. ","location":{"latitude":44.26911292,"longitude":15.48659476},"category":{"name":"Wild Camping"}},{"id":62175,"name":"flat place near hill top","date_verified":"2018-06-15T00:00:00.000Z","description":"it's the parking at the end of the tiny  dead-end road. Don't think anybody will disturb you here. Can get windy. One picknick table available. \r\nIt's also starting point of some hikes to the national park. \r\nNarrow, steep mountain road. ","location":{"latitude":44.33049333,"longitude":15.4450976},"category":{"name":"Wild Camping"}},{"id":62214,"name":"Camping Belvedere","date_verified":"2018-06-16T00:00:00.000Z","description":"Big Campground with about 500 pitches all on terraces. Most of the pitches have sea view. Very clean and mostly shady. A little expensive, but realy higher level.","location":{"latitude":43.50934433834411,"longitude":16.191566766066757},"category":{"name":"Established Campground"}},{"id":62456,"name":"Camp Milo Moje","date_verified":"2018-09-01T00:00:00.000Z","description":"Brand new campsite openend June 2018. Little campsite with about 30 pitches all on diffrent levels. All pitches with sea view. Very friendly staff. The boss gave 20% discount because we were the first German guests. ","location":{"latitude":43.16808976932574,"longitude":17.206719623434694},"category":{"name":"Established Campground"}},{"id":62487,"name":"Eco camp Rizvan City","date_verified":"2022-05-13T00:00:00.000Z","description":"Offers a different view of Croatia. The landscape is nice and the atmosphere relaxing. It is part of an adventure park that offeres something for everyone. You can do very nice bike rides, motorcycle rides and trail running here. It cost us 20‚Ç¨/night. 2 persons, 2 motorcycles and one small tent.\nUpdate: When we drove off from the camp my wife got her front tire punctured by a screw from the construction site on the camp. Beware of such hazards.","location":{"latitude":44.49537065,"longitude":15.2914183},"category":{"name":"Established Campground"}},{"id":62534,"name":"Camping Prapratno","date_verified":"2018-06-20T00:00:00.000Z","description":"Big Campground with direct acces to a very nice, nearly sandy beach. Place with lot of shade from big trees.","location":{"latitude":42.81701179344197,"longitude":17.674811720996345},"category":{"name":"Established Campground"}},{"id":62803,"name":"Autocamp Sime","date_verified":"2019-05-19T00:00:00.000Z","description":"Big flat area in an urban setting with olive trees where there's place for 10 camping cars. Super friendly host with new toilet shower bloc","location":{"latitude":43.75638333333333,"longitude":15.7924},"category":{"name":"Established Campground"}},{"id":62841,"name":"Auto Camp Kupari","date_verified":"2018-06-24T00:00:00.000Z","description":"An interesting place 7 Km further south from Dubrovnik. It looks deserted but it is clean. Dubrovnik is easily accessible by bus nr. 10.","location":{"latitude":42.62509619,"longitude":18.18906239},"category":{"name":"Established Campground"}},{"id":62906,"name":"Border crossing closed","date_verified":"2022-01-06T00:00:00.000Z","description":"This border is closed to international traveler. don‚Äôt cross here!!!! ","location":{"latitude":42.80946,"longitude":17.89078},"category":{"name":"Customs and Immigration"}},{"id":62907,"name":"Abandoned Barack and radar! Very hard off road ","date_verified":"2022-02-18T00:00:00.000Z","description":"Right on top there is an abandoned military Barack and radar. You get a brilliant view of both Croatia and Bosnia as you will be right on the border point. Road is ok for 3/4 of the way but then become hard when get close the pick with baseball sized stones and gravels. We did it on tow fully loaded bmw gsa, so any other adventure bikes should be able to do it. ","location":{"latitude":44.7931683063463,"longitude":15.749038988881598},"category":{"name":"Tourist Attraction"}},{"id":63172,"name":"Above Starigrad","date_verified":"2023-10-17T00:00:00.000Z","description":"Nice viewpoint parking high above Starigrad. Access through narrow streets of the town before the road starts a steep ascend. There is another similar parking 500m down the road.\r\n\r\nPicknick table and benches available.\r\nCan get busy during summer season.","location":{"latitude":44.30811,"longitude":15.43222},"category":{"name":"Wild Camping"}},{"id":64430,"name":"Kamp Maslinik","date_verified":"2022-09-05T00:00:00.000Z","description":"Small family camp with a lot of shops de from olives and figs. Not directly to the beach but just a 5 minute walk to the center of Punat and beaches.","location":{"latitude":45.01826184074317,"longitude":14.63410031224742},"category":{"name":"Established Campground"}},{"id":64582,"name":"Kazela campsite","date_verified":"2018-07-13T00:00:00.000Z","description":"Campsite next to the beach. Clean and some shade. I ended up here because I didn't found a spot for wild camping. The site is big, the prices also","location":{"latitude":44.8068342887179,"longitude":13.958434249272544},"category":{"name":"Established Campground"}},{"id":64864,"name":"Dubrovnik PLIN","date_verified":"2021-12-26T00:00:00.000Z","description":"This place was able to fill our South African gas canister - they had adapters to put 3 kg of gas into our 5kg tank. This was the first place we found that could fill our tank since we arrived to Greece from Egypt. \r\n\r\nWeekdays 7-21\r\nSat 7-15\r\nSun closed","location":{"latitude":42.79945717662834,"longitude":17.85301152618402},"category":{"name":"Propane"}},{"id":65226,"name":"Jadranska Magistrala","date_verified":"2018-04-12T00:00:00.000Z","description":"Right next to the old main road along the coast. Nice view out to the sea. Not much traffic, hardly any once the sun has set ‚Ä¶ and as it is far away from any urban area quite unlikely some authorities chase you away.","location":{"latitude":44.32592,"longitude":15.38152},"category":{"name":"Wild Camping"}},{"id":65439,"name":"Harbor Marina Veruda","date_verified":"2018-06-11T00:00:00.000Z","description":"Opposite number 18 in the harbour is a gas filling station. Campingaz 907 cilinder filling price 42kuna.","location":{"latitude":44.845491601195974,"longitude":13.850286891696834},"category":{"name":"Propane"}},{"id":65440,"name":"Funtana","date_verified":"2018-06-12T00:00:00.000Z","description":"Karlos is a wonderful elektricien who works with his son from a garage at the address Grgeti 2, Funtana. They are elektriciens specialized in working at boats and campers. Aso he has very good contacts with other car companies in the area and is well known. Very friendly and helpful. ","location":{"latitude":45.17362,"longitude":13.60409},"category":{"name":"Mechanic and Parts"}},{"id":65514,"name":"Ra≈°a","date_verified":"2021-04-10T00:00:00.000Z","description":"Fantastic View all along the Coast Side on Top of a Hill. Quiet for one night, not for a long stay. right at the entrance of a small village. A small Parking lot next to Road uphill with lot of wild herbs. You have a beautiful sunset.","location":{"latitude":44.9798,"longitude":14.1447},"category":{"name":"Wild Camping"}},{"id":65667,"name":"Grassy patch","date_verified":"2020-09-13T00:00:00.000Z","description":"Small grassy patch at the end of the road up the mountain. No signs saying no camping but we all know how Croatia is. cars or small campers only, definitely not for motorhomes due to difficult drive up","location":{"latitude":43.41005476661344,"longitude":16.87356719748757},"category":{"name":"Wild Camping"}},{"id":65993,"name":"Camp Terre","date_verified":"2019-08-21T00:00:00.000Z","description":"Very nice, clean, quite. Friendly Host. Sells his own wine and Olive oil. 125kn first night. Every following night100kn. Including electricity and WiFi ","location":{"latitude":45.158268478741086,"longitude":13.766927858827419},"category":{"name":"Established Campground"}},{"id":66494,"name":"MV Start","date_verified":"2019-07-15T14:28:54.256Z","description":"MV Start is a company that sources parts for all American and 4x4 vehicles in Croatia.  If you need the part they can get it.  They also do mechanical work or can direct you to the best mechanic who can.  Vladimir and his wife Andrea worked extremely hard to find a tie rod for my JK Jeep Wrangler that I could pick up same day in Zagreb.","location":{"latitude":45.9594326,"longitude":16.241959},"category":{"name":"Mechanic and Parts"}},{"id":66495,"name":"Picnic spot along the Lika","date_verified":"2018-07-31T00:00:00.000Z","description":"Picnic spot along the Lika river. Picnic tables and shelter available. There is also a stage, so maybe on some days events are organised here, however when we were here it was all quiet.\r\n\r\nYou can swim in the river but it's quite muddy along the shores","location":{"latitude":44.63898559,"longitude":15.33846409},"category":{"name":"Informal Campsite"}},{"id":67796,"name":"Zlatna Dolina","date_verified":"2022-05-19T20:48:37.000Z","description":"Free camping on the shore of the Cetina river. Close to restaurant \"Zlatina Dolina\". There's a camping sign, so it's officially allowed. I also asked the owner of the restaurant to verify and it is.\r\n\r\nToilets of the restaurant can be used and you can swim in the clear but cold water of the river","location":{"latitude":43.48083518,"longitude":16.84190393},"category":{"name":"Informal Campsite"}},{"id":68571,"name":"Big parking","date_verified":"2018-09-04T00:00:00.000Z","description":"Big parking lot on gravel. Nice beach 5 mins walk ","location":{"latitude":45.26571182072653,"longitude":14.564897865070556},"category":{"name":"Informal Campsite"}},{"id":68643,"name":"Lun Olive Woods","date_verified":"2018-08-16T00:00:00.000Z","description":"Parking Spot directly by the entrance to the national park. We stood here with a camper for one night and nobody bothered. Very quite, beside some cars driving by.\r\nEntry to the beach trough the park costs 15 kn per person but is totally worth it. ","location":{"latitude":44.6825604011102,"longitude":14.755052371575472},"category":{"name":"Wild Camping"}},{"id":68748,"name":"Parking Spot by the lake ","date_verified":"2018-08-21T00:00:00.000Z","description":"Parking Spot directly by the lake.\r\nAt the morning the spot is used by the visitors for the lake. But during the night it‚Äôs very quiet. ","location":{"latitude":45.36221454309994,"longitude":14.719718538322027},"category":{"name":"Wild Camping"}},{"id":69844,"name":"Fort Punta Christo","date_verified":"2018-08-16T00:00:00.000Z","description":"we slept in the parking lot next to the road between threes \r\nquiet spot without view","location":{"latitude":44.892638121451085,"longitude":13.799012170465655},"category":{"name":"Wild Camping"}},{"id":70793,"name":"Kopito camping Hvar","date_verified":"2019-07-11T00:00:00.000Z","description":"New campground with pool, kitchen, electric, wifi, etc. 1km walk downhill to Hvar. 30‚Ç¨ for 3 people. Probably the cheapest campground on the island. Friendly owner speaks English, but usually not around the site. Pick any spot and call the # on the sign.","location":{"latitude":43.1680612,"longitude":16.45827995},"category":{"name":"Established Campground"}},{"id":71455,"name":"Nice beachfront site in a lagoon","date_verified":"2021-08-01T00:00:00.000Z","description":"A nice place inside a lagoon. Has a parking space which is above the beach where you can stay. Lovely to swim and watch the sunset. A few cars passed by during the night. Besides that, it‚Äôs quiet. We came with a small van. The road is rocky but it‚Äôs doable and worth it!","location":{"latitude":43.30363218593921,"longitude":16.471002941360172},"category":{"name":"Wild Camping"}},{"id":71456,"name":"Terrace place","date_verified":"2018-09-21T00:00:00.000Z","description":"Abandoned place where there is a terrace. All the trees have been removed and there are only pebbles/small rocks. Amazing view over the hills, water and the mainland. Rocky road to come here but worth the drive. \r\nWe came with a small BW-van and it was a good drive. Jeeps can go further down the road to the end near the water. ","location":{"latitude":43.35131879192665,"longitude":16.716608260968105},"category":{"name":"Wild Camping"}},{"id":72337,"name":"Slavonski Brod","date_verified":"2018-09-30T00:00:00.000Z","description":"Near the river on a small peninsula with Walter, toilets and cold showers.","location":{"latitude":45.1286168,"longitude":18.03733055},"category":{"name":"Wild Camping"}},{"id":72702,"name":" Old Hotel Complex / urban exploring ","date_verified":"2022-05-21T00:00:00.000Z","description":"Great urban exploring in this old and completely empty hotel complex. Some nice overnight spots, I stayed on the flat concrete square down from where the bee boxes are. Very private. Several entries, watch out for the holes in the road. ","location":{"latitude":44.950284283308086,"longitude":14.927646542189583},"category":{"name":"Wild Camping"}},{"id":72809,"name":"Park ","date_verified":"2022-05-29T00:00:00.000Z","description":"You can camp everywhere of this big park's parkinlots.\r\nIt's 75kzna for a campervan, can stay as long as you want. (if you leave and come back, you have to do a new payment)\r\nDrinking water, pit toilets, restaurant, bar, everything is in the park. \r\nYou can ask at the kanooclub for filling the campervan watertank. They also have showers there.","location":{"latitude":45.782757424463306,"longitude":15.925516623014767},"category":{"name":"Informal Campsite"}},{"id":73226,"name":"Camp Peca","date_verified":"2020-09-16T00:00:00.000Z","description":"Sandy pitches with lot‚Äôs of trees. When raining it get‚Äôs muddy. Facilities look basic but are good, hot water. We were on our own in October, not even the owner was there at night. Bus stop for Dubrovnik around the corner (20min by bus, 15kn pp per ride). Ask owner for the schedule (app 1x per hour). 2 pers, 1 car rtt, ‚Ç¨10. Cheap for the area!! ","location":{"latitude":42.70020144529892,"longitude":18.007331918941816},"category":{"name":"Established Campground"}},{"id":73989,"name":"Camping Vrila","date_verified":"2018-10-03T00:00:00.000Z","description":"Free wifi, beer on tap, beachfront. \r\nPeaceful except for jackals howling at night. \r\n200 kuns for 3 in a campervan.","location":{"latitude":43.0033435,"longitude":17.28507},"category":{"name":"Established Campground"}},{"id":75570,"name":"Luka Dubrava Beach","date_verified":"2022-12-03T00:00:00.000Z","description":"Beachfront parking on gravel with some shade under olive trees. An old abandoned campground is up the road. Peaceful quiet night. No amenities, but good cell service.","location":{"latitude":42.91292539,"longitude":17.47768924},"category":{"name":"Wild Camping"}},{"id":84030,"name":"quiet spot ","date_verified":"2023-09-12T00:00:00.000Z","description":"This spot is only for motorhomes, not for tents. We stayed here for a couple of nights in the off  season never had any problems. Great location nice walkways along the water and a beautiful historic town on top of the hill.","location":{"latitude":45.21160440286127,"longitude":14.55099309485583},"category":{"name":"Wild Camping"}},{"id":84571,"name":"on the beach ","date_verified":"2022-12-01T00:00:00.000Z","description":"This is a great spot right on the water. We stayed here for a couple of nights in the of season without any problems. This place is only for motorhomes no tents. The marina is only across the road with a fuel station for boats and cars where you find water tabs.","location":{"latitude":44.05277578461168,"longitude":15.295281057321796},"category":{"name":"Wild Camping"}},{"id":84652,"name":"Quiet overnight spot ","date_verified":"2021-07-07T09:31:21.721Z","description":"This is a quiet spot with lots of room suitable for large rigs. Short walk to the center of town with restaurants and coffe shops.","location":{"latitude":43.5843,"longitude":15.93341},"category":{"name":"Wild Camping"}},{"id":86895,"name":"Park site Kantrida","date_verified":"2023-06-13T00:00:00.000Z","description":"A big flat open parking place with roughly 200 spots. Located right next to the sea. Often there are other campers found here. At night, you have a beautiful view of the city with all the little lights. It's gorgeous.","location":{"latitude":45.33810683,"longitude":14.38084004},"category":{"name":"Wild Camping"}},{"id":88529,"name":"Money Exchange Danijel","date_verified":"2019-04-03T00:00:00.000Z","description":"Best rate I could find near city centre. 7.37Kn=1‚Ç¨ compared to 7.1Kn=1‚Ç¨ at the yellow exchange both chains around the tourist centre. ","location":{"latitude":43.50805534985243,"longitude":16.442337054774576},"category":{"name":"Financial"}},{"id":89338,"name":"Makarska free parking","date_verified":"2019-04-13T00:00:00.000Z","description":"It‚Äôs a nice parking lot under the trees and next to shore. Nice view during the sunset. We spent a night with no trouble. ","location":{"latitude":43.30072854755439,"longitude":17.011871487749037},"category":{"name":"Wild Camping"}},{"id":89787,"name":"Large parking in city center","date_verified":"2019-04-17T00:00:00.000Z","description":"Parking free of charge during night from 9 pm to 7 am. Surprisingly quiet. Walking distance to the center / port / restaurants.","location":{"latitude":43.2912976947223,"longitude":17.01985006701814},"category":{"name":"Informal Campsite"}},{"id":89850,"name":"Camping Arena Stoja","date_verified":"2022-09-06T00:00:00.000Z","description":"Typical huge holiday campground without any flair directly on the ocean  Showers and toilets clean and ok. Staff very friendly and speaks English and German fluently. We paid in off season 18 Euro per night incl. electricity (price only online available). It was quite when we were there but in summer it must be completely full. There is a bus in front of the gate that goes three times an hour to city centre of Pula. Wifi free, fast and available almost everywhere on the spot. Several restaurants on the campground.","location":{"latitude":44.85826195764034,"longitude":13.814390704336255},"category":{"name":"Established Campground"}},{"id":89902,"name":"Wild camping next to the beach","date_verified":"2019-08-03T00:00:00.000Z","description":"Two to three level spots where you can park with your 4x4 (no big rig). If you don't have a 4x4 or a big rig you can park uphill and walk about 100 meters to the beach where you can put your tent (or sleep uphill in the parking lot). Beautiful view. In the daytime some visitors but in the nighttime very quite. No shade. Dogs are officially not allowed directly at the beach but there where some visitors with dogs and no one cared.\r\nUpdate: On the second night came a guy (Mario) and told us, that it is private and we could pay 100 Kuna or leave. We paid, because at the end it was cheaper than a campground. And he said we were not allowed to make a campfire.","location":{"latitude":44.946225190140524,"longitude":14.706437010145933},"category":{"name":"Informal Campsite"}},{"id":90038,"name":"Auto-Camp Pod Maslinom","date_verified":"2023-05-06T00:00:00.000Z","description":"Nice, family run, campground near Dubrovnik. very clean amenities, hot water, hot showers, places with shadow. A lot of places facing the see on the back side of the campsite, fantastic views. These might be a bit harder to reach with big rigs. The front side has large places, good for a big rig. \r\n\r\nWe paid ‚Ç¨ 14,- a night. 2 person, car with rooftoptent and electricity. (ACSI card member). \r\n\r\nGreat place to relax after Dubrovnik. Bus stop in front of the campsite, only 20 minutes to the old town of Dubrovnik.\r\n\r\nCheck the pictures for prices (April 2019).","location":{"latitude":42.69829844,"longitude":18.00474678},"category":{"name":"Established Campground"}},{"id":90494,"name":"Small lake","date_verified":"2023-03-24T00:00:00.000Z","description":"nice place to stay with a lake. if it is rainy muddy road but the site is grass.\r\n4x4 required, not for big rigs. space for a few cars. no cellular connection here","location":{"latitude":45.40013962,"longitude":14.14859083},"category":{"name":"Wild Camping"}},{"id":90764,"name":"Privat Road","date_verified":"2019-04-26T00:00:00.000Z","description":"This is not the official road to the lake. Its closed by a barriere.","location":{"latitude":44.86357104,"longitude":14.41176145},"category":{"name":"Warning"}},{"id":90765,"name":"Closed Road","date_verified":"2019-04-26T00:00:00.000Z","description":"This road is in Private property, offroading here is not alowed anymore.","location":{"latitude":44.874438,"longitude":14.357586},"category":{"name":"Warning"}},{"id":90774,"name":"View on Cres","date_verified":"2019-04-27T00:00:00.000Z","description":"top of a mountain amazing view.\r\ngoing up here needs a vehicle with good offroad capabilities.","location":{"latitude":44.66527556,"longitude":14.36580673},"category":{"name":"Tourist Attraction"}},{"id":91206,"name":"Autocamp Draga","date_verified":"2023-04-29T00:00:00.000Z","description":"very nice Campsite, friendly reception, place and ablutions super clean, EUR 20.- for 2 persons with Camper ","location":{"latitude":45.24006547235684,"longitude":14.24980147576184},"category":{"name":"Established Campground"}},{"id":91305,"name":"Peter and Barbara Scheltus","date_verified":"2023-08-31T00:00:00.000Z","description":"Permaculture setup with great space in nature to camp and interact with lovely owners. We paid ‚Ç¨28 for two people and a camper van for one night.\r\nGreat area and nice place to camp. ","location":{"latitude":45.36238867759523,"longitude":15.690185499657954},"category":{"name":"Established Campground"}},{"id":91327,"name":"Podgora","date_verified":"2019-04-23T00:00:00.000Z","description":"Quite place at a memorial. Small steep road to the location. ","location":{"latitude":43.245758232700865,"longitude":17.07082246431808},"category":{"name":"Wild Camping"}},{"id":91750,"name":"Auto Camp Merinero","date_verified":"2021-08-06T00:00:00.000Z","description":"Great little campsite literally on the water. \r\nIt's the garden of the house next door which has a WC and Shower.\r\nNo mobile coverage. ","location":{"latitude":42.453693015677906,"longitude":18.435224251847213},"category":{"name":"Established Campground"}},{"id":92736,"name":"Spot near lake","date_verified":"2022-03-05T00:00:00.000Z","description":"Nice little spot next to a lake at the end of a dirt road. \r\nEvening time mosquitoes come out but otherwise nice. ","location":{"latitude":43.076171699382165,"longitude":17.405239656064314},"category":{"name":"Wild Camping"}},{"id":92931,"name":"Parking Valun","date_verified":"2022-08-18T00:00:00.000Z","description":"Free at this time of the year. Only one other camper here:-) Good for one night. Outdoor showers at the beach (tent) camp. Free wifi at the tourist info in the village (5min) walk.","location":{"latitude":44.904358419631514,"longitude":14.358717547742984},"category":{"name":"Wild Camping"}},{"id":92932,"name":"Kamp Slatina","date_verified":"2022-07-26T16:32:52.000Z","description":"Really big campground. Very clean. Dogfriendly. Cheapest place for 185HRK for one night (2+van+dog) :-( Don‚Äòt know if it really fits for overlanders.","location":{"latitude":44.820927,"longitude":14.342618},"category":{"name":"Established Campground"}},{"id":92933,"name":"Kamp Preko Mosta","date_verified":"2019-05-16T00:00:00.000Z","description":"Very nice and idyllic camping. Very friendly owner. Dogfriendly. Wifi next to the toilets. Nice walk at the sea on the right side in the camping (NW). 144HRK for one night. (2+van+dog) Recommended!","location":{"latitude":44.692,"longitude":14.39061},"category":{"name":"Established Campground"}},{"id":92935,"name":"Kamp Mali","date_verified":"2019-05-17T18:47:19.088Z","description":"Small and nice campground. Dogfriendly. Nice small village. Only a small dog beach :-(. 140HRK per night (2+van+dog). Recommended!","location":{"latitude":44.965801,"longitude":14.7467},"category":{"name":"Established Campground"}},{"id":92955,"name":"Quiet overnight spot on the Danube ","date_verified":"2019-05-17T00:00:00.000Z","description":"Quiet overnight spot on the Danube. Stayed here a couple of days without any problems. Great restaurant nearby.","location":{"latitude":45.23023474362596,"longitude":19.377723374160407},"category":{"name":"Wild Camping"}},{"id":93287,"name":"Kamp Luka","date_verified":"2019-05-19T00:00:00.000Z","description":"Small and cheap campground. 80HRK/night (2+van+dog). But toilets and showers are ugly:-( We left...","location":{"latitude":43.441398,"longitude":16.654701},"category":{"name":"Established Campground"}},{"id":93288,"name":"Camp Lisiƒçina","date_verified":"2019-07-20T00:00:00.000Z","description":"Nice campground surrounded by rocks. Dog friendly. Simply and clean. 100HRK/night (2+van+dog). Nice walk up to a little village. Recommended.","location":{"latitude":43.447168,"longitude":16.690865},"category":{"name":"Established Campground"}},{"id":93639,"name":"Top of ciste","date_verified":"2019-05-21T00:00:00.000Z","description":"Nice walk to the top of a hill. Amazing view over sea and island. Bring good shoes. Circa 0.75h from Zivogosce Strn.","location":{"latitude":43.178491573820985,"longitude":17.19225327485911},"category":{"name":"Tourist Attraction"}},{"id":93640,"name":"Kamp Paradiso","date_verified":"2019-05-23T00:00:00.000Z","description":"Campground an a hill with all day sun. Nice small beach. To expensive for what it offers. But maybe it will be better after the renovation which is now in progress. 120HRK/night (2+van+dog)","location":{"latitude":42.9669,"longitude":17.242001},"category":{"name":"Established Campground"}},{"id":93974,"name":"Kamp Denka","date_verified":"2019-05-24T00:00:00.000Z","description":"Nice, idyllic and clean campground. Friendly owner. Washing machine 30HRK. 130HRK/night (2+van+dog). Recommended!","location":{"latitude":43.025215,"longitude":17.035035},"category":{"name":"Established Campground"}},{"id":93975,"name":"Kamp Sunce","date_verified":"2022-09-14T00:00:00.000Z","description":"Small and nice campground. Very friendly owner family. Next to the village and beach. 100HRK/night (2+van+dog). We were alone at this time of the year:-)","location":{"latitude":42.892757,"longitude":17.454949},"category":{"name":"Established Campground"}},{"id":94026,"name":"Kamp Adriatic","date_verified":"2023-05-16T00:00:00.000Z","description":"Campground with lot of shady spots. Owner sells olive oil and wine. Everything ok. 90HRK/night (2+van+dog)","location":{"latitude":42.453655,"longitude":18.435725},"category":{"name":"Established Campground"}},{"id":94290,"name":"Val Vidal","date_verified":"2022-05-20T00:00:00.000Z","description":"Croatia's coast line is not known for it's rustic and small camp sites. This camping will definitely surprise you. A small campsite, beautifully situated next to some of the most extreme \"camp cities\" we have ever seen. Still get the shivers when thinking of it. But this small camping is really something else. Nice pitches, nice views, quiet and lots of space. Downsides? Well, maybe the tiny ablution block, but further nothing to mention. Friendly owners and a good atmosphere! ","location":{"latitude":45.04994634,"longitude":13.69245639},"category":{"name":"Established Campground"}},{"id":94619,"name":"At Borik Beach","date_verified":"2023-10-01T00:00:00.000Z","description":"Next to the rocky beach in a little forest under pine trees. Dirt road with some places to park with the car. A little bit dirty. Nice view at the sea and the sunset.\r\nRestaurant/Bar at the begining of the dirt road. ","location":{"latitude":44.13106873740394,"longitude":15.203547100837167},"category":{"name":"Wild Camping"}},{"id":94992,"name":"Camping Selce","date_verified":"2019-08-09T14:52:18.000Z","description":"A small, tidy \u0026 clean campsite with 12 places for small to mid size camping vans. Electricity, Water, hot shower, laundry facility. Camp sites appr. 50 m from beach. No through traffic. Quiet place. Stayed here in low season beginning June. ","location":{"latitude":45.15179499162609,"longitude":14.72334761566476},"category":{"name":"Established Campground"}},{"id":95265,"name":"Lane End","date_verified":"2022-05-29T00:00:00.000Z","description":"Stunning overnight stop. Area is uneven but there are plenty of stones around to help level. fantastic views of the Croatian coast. Should be accessible to most vans and 4x4.","location":{"latitude":43.36271833333333,"longitude":16.723718333333334},"category":{"name":"Wild Camping"}},{"id":95278,"name":"Port 9 Campsite","date_verified":"2019-06-06T00:00:00.000Z","description":"A campsite of medium size located in a bay. Nearby at site there are apartments and mobilhomes for rent. Sanitary facilities are clean. Restaurant and bar at site. You can walk by foot to the  town of Korcula (2,5km) or you can take the boat Taxi (15Kn). We think that the campsite is only suitable for one or two days. We paid 27‚Ç¨ for the first night for two persons, two motorbikes and a small tent.","location":{"latitude":42.9517927,"longitude":17.14342221},"category":{"name":"Established Campground"}},{"id":96150,"name":"Bear Cave and River Trail","date_verified":"2019-10-14T00:00:00.000Z","description":"Follow hiking trail to the end. Nice and adventurous trail at and in the river. About 50m before the trail ends you can go up a steep and narrow trail (right side) to the national park for free:-) (see foto) Bring bathing suit and good shoes with you!","location":{"latitude":44.909682,"longitude":15.608519},"category":{"name":"Tourist Attraction"}},{"id":96761,"name":"backpackers home","date_verified":"2019-06-17T00:00:00.000Z","description":"Central hostel with safe parking for motorbikes. Close to the beach, store and bakery close by, clean, friendly, great kitchen available. Big common area ","location":{"latitude":44.126476592546304,"longitude":15.225347158600758},"category":{"name":"Hostel"}},{"id":97045,"name":"Fun Hostel","date_verified":"2023-08-06T00:00:00.000Z","description":"Large Hostel nestled on the coast, an easy, flat, ten minute walk from Old Town Rejika. Good, off road, discrete parking for bikes. ","location":{"latitude":45.32039631,"longitude":14.46078274},"category":{"name":"Hostel"}},{"id":97048,"name":"Dubrovnik Backpackers Club","date_verified":"2019-06-18T00:00:00.000Z","description":"Seems to be a converted apartment complex spread over several floors.  No significant signage outside so it's easy to ride straight by.  There's off road parking, on a quiet street out on the Dubrovnik Peninsular, for a good few bikes, and it felt safe, to me at least.  Rooms are what you'd expect for a hostel.  Bunk beds, ensuite toilet and shower, it was in  my bunkroom at least.  The only minor niggle with the bunks being that the top bunk was too low to maker sitting on the bottom bunk comfortable.  Great facilities in the ground floor communal area and a good kitchen.  Super market near by and easy access to the regular, reliable bus service to take you to old town, where it all seems to happen otherwise it's maybe  an hour's walk.  There's an actual bank (OTP Bank) nearby where I used the ATM without having to pay a fee, one of my pet hates.  There's also a pedestrianised street nearby with the usal assortment of restaurants/cafes.  Prices throughout Dubrovnik seem higher than others in Croatia.  There's a vespa dealer in town (moto Centar Dubrovnik) which has some limited stock of bulbs, oils etc..  The best part of the hostel are the hosts. An elderly couple who are kind, welcoming knowledgable and helpful, interesting and ready to chat.  There is an age limit apparently if you look closley at the hostels T\u0026C's to avoid those looking for something more relaxing to become irritated at those looking to party but to be honest, I'm outside of the upper age limit and didn't have any issues, might be worth checking out, depending what you're after, before checking in.","location":{"latitude":42.65904,"longitude":18.07382},"category":{"name":"Hostel"}},{"id":98381,"name":"Montenegro/ Croatia Border ","date_verified":"2022-06-20T00:00:00.000Z","description":"Two stops. Entering Croatia took some time. Checked passports. Vehicle documents","location":{"latitude":42.49001405786811,"longitude":18.43455670130118},"category":{"name":"Customs and Immigration"}},{"id":99107,"name":"Camp Mioƒçiƒá","date_verified":"2023-06-06T00:00:00.000Z","description":"A hidden champion! Very nice place to stay not only for one night. Moderate prices, payment in ‚Ç¨ possible, but no payment by card. Directly at the beach. Personnel speak English and German. Clean showers and toilets. Own grill, restaurant with delicious fish and meat dishes. ","location":{"latitude":44.29182515483749,"longitude":15.302134864046518},"category":{"name":"Established Campground"}},{"id":100526,"name":"Glavanove ","date_verified":"2019-07-17T00:00:00.000Z","description":"Walk down the stairs and you have a perfect place to swim. You could camp there too. There are a lot of people walking by at night but nobody says something. Around 10:00 it gets crowded. ","location":{"latitude":45.31590064416933,"longitude":14.469655293580736},"category":{"name":"Wild Camping"}},{"id":100761,"name":"Autokamp Punta Povile","date_verified":"2021-06-06T00:00:00.000Z","description":"Waterfront Campsite but that‚Äòs it. Good enough for one night. Toilets are dirty. ","location":{"latitude":45.115170499244606,"longitude":14.815313467332436},"category":{"name":"Established Campground"}},{"id":101091,"name":"House Angie","date_verified":"2019-07-20T00:00:00.000Z","description":"Guesthouse with a few rooms to rent or some space arround for one or two campers. Think the young guy who manages this guesthouse lives there with his parents/grandmother. However, very friendly and helpful. They wanted to serv us breakfast as well. \r\nHe told us that we can park for 10 Euros for one night, we gave him 20. ","location":{"latitude":44.85015038517816,"longitude":15.654698445579927},"category":{"name":"Informal Campsite"}},{"id":103130,"name":"Kamp Bunica V","date_verified":"2019-08-04T00:00:00.000Z","description":"Small camping direct on the sea, situated in a small bay with pebble beach and clear water. We payed for a family of 2 adults and 2 children (9 and 10) and our campervan without electricity E35 per night.","location":{"latitude":45.02562,"longitude":14.88605},"category":{"name":"Established Campground"}},{"id":103390,"name":"Vara≈ædin","date_verified":"2019-09-23T00:00:00.000Z","description":"The owner of this campground has died. This has some advantages. The camping is for free. There is no electricity and no toilets. There is an Austrian guy here where you can get water. You can camp/pitch your tent next to the lake. A great place to go sailing if you bring your own boat. There is not enough wind to go kite surfing or windsurfing however there is a place to start if you bring a para motor. No big rigs, because you have to go under a bridge in order to get here.The entrance is the first right turn after crossing the bridge.","location":{"latitude":46.323001392205505,"longitude":16.374073999965166},"category":{"name":"Wild Camping"}},{"id":103525,"name":"Camp Kosirina","date_verified":"2020-07-06T00:00:00.000Z","description":"Large campsite between olive trees and pine trees, situated along the shore around a blue bay. Great and safe for swimming and hunting for tiny crabs with kids. Beware of the sea urchins. The end is a peninsula where the nudist part is. There is no electricity on the peninsula and you can pick a spot you like. There are no fixed places. The other part of the campsite is half with electricity. Most places are not flat. 2 toilet/shower buildings with decent water, that can be pretty far from a camp spot. \r\nWe were happy we had our bicycles with us. In the morning there‚Äôs a small stall with fresh bread. The whole day you can eat some simple snacks and have a drink at one of the two beach shacks. And there‚Äôs a tiny shop that sells fruit, vehetables and olive oil. We paid for 2 adults, 2 kids and a campervan 35‚Ç¨ per night. \r\nNote: Google maps shows this place with a phone number of someone who wants to rent out parking spaces and it is not from the campsite.","location":{"latitude":43.79359925635512,"longitude":15.60655284674429},"category":{"name":"Established Campground"}},{"id":104263,"name":"Trolokve","date_verified":"2020-08-10T00:00:00.000Z","description":"Remote place, 4x4 needed, nice camping ground, close to single empty house at the beach.","location":{"latitude":44.57509688124273,"longitude":14.990318373138779},"category":{"name":"Wild Camping"}},{"id":104355,"name":"Das Fledermaushotel","date_verified":"2019-08-12T00:00:00.000Z","description":"Small familiar campsite directly at the lake. Linked to a well running Restaurant with delicious food. Cheap price. About 100 kn per night. Quiet and calm.","location":{"latitude":43.89956905976301,"longitude":15.541113819941451},"category":{"name":"Informal Campsite"}},{"id":104554,"name":"Hru≈°cica","date_verified":"2023-09-23T00:00:00.000Z","description":"Place next to the river (Save). Nice view.","location":{"latitude":45.78471447,"longitude":16.13358152},"category":{"name":"Wild Camping"}},{"id":106122,"name":"Split","date_verified":"2023-08-08T00:00:00.000Z","description":"This is really a remote place where you can swim and even park overnight, right by the sea. But for brave drivers - last 300 m is a narrow path with the bushes, but we made it with our Matilda 2m wide Hymer. It is in the industrial part, a little bit dirty but clean water and historical town on sight. It is quite calm here.","location":{"latitude":43.52803533435196,"longitude":16.458852002412506},"category":{"name":"Wild Camping"}},{"id":106396,"name":"Mari√°n","date_verified":"2023-07-19T00:00:00.000Z","description":"This is  great place for wild campers with romantic views of the sea in the company of cactuses and cicadas. The entrance to the sea is a little bit difficult but possible. The parking lot is dirty with rubbish, but the rocks and the sea compensate for it. We spent a beautiful day here with only a few visitors starting late afternoon.","location":{"latitude":43.50415076598851,"longitude":16.404279023424166},"category":{"name":"Wild Camping"}},{"id":106552,"name":"Beatiful Bay","date_verified":"2022-09-22T09:13:49.000Z","description":"Beautiful bay site near to the port of Suƒáuraj. Small parking area and a lot of space to set up a tent. Some people come to swim during the day time but in the evening it‚Äòs quite and even more lovely. One night another Camper came by but other than that we were alone. We easy stayed two nights sleeping in a tent. \r\nWe came with a 4x4, small Vans (such as VW T6) should fit too. Don‚Äòt know about big camping Cars because of some narrow parts of the road.","location":{"latitude":43.12164,"longitude":17.16686},"category":{"name":"Wild Camping"}},{"id":106635,"name":"Kamp Grebi≈°ƒáe","date_verified":"2021-07-27T00:00:00.000Z","description":"Nice camping site close to the sea and the city Jelsa. The owners and staff are very friendly and the facilities are being cleaned several times during the day and are in a really good condition. A lot of places in the shadow. You could even rent a small bungalow. It‚Äôs 205 kn a night for 2 adults a car and a tent. \r\nThey also have an own beach and free Wifi.","location":{"latitude":43.15825,"longitude":16.71035},"category":{"name":"Established Campground"}},{"id":106773,"name":"Lakeside","date_verified":"2022-07-14T09:20:35.000Z","description":"This is a very nice place right at the lake. You have a nice view of the lake and can go for a swim. It probably is possible to get here with smaller motorhomes, too. This seems to be private ground but there is no house and we had no problems.","location":{"latitude":43.904480729292985,"longitude":15.534104201957149},"category":{"name":"Wild Camping"}},{"id":106821,"name":"Bushes","date_verified":"2019-08-21T00:00:00.000Z","description":"This would be a gem if it wasn't for the trash and toilet paper lying around abundantly. I hope you don't add any to it.\r\nSmall area, slightly inclined, among the bushes or forest, not visible from the highway or any building. It's up a small paved road that soon after becomes overgrown with bushes. I think it leads up to a big military area. Nobody passed during my stay and I had a very quiet night under a sky full of stars.\r\nFree, no services.","location":{"latitude":45.0745421,"longitude":15.57351553},"category":{"name":"Wild Camping"}},{"id":106828,"name":"Korenica","date_verified":"2019-08-27T00:00:00.000Z","description":"on a field with sheep.  View on hills.  Good gravel road for access.","location":{"latitude":44.74874186,"longitude":15.73071912},"category":{"name":"Wild Camping"}},{"id":106829,"name":"Village","date_verified":"2019-08-28T00:00:00.000Z","description":"Drinking water and repair station for bicycles.","location":{"latitude":45.15925853,"longitude":15.74058881},"category":{"name":"Water"}},{"id":106830,"name":"Gornja Bucica","date_verified":"2019-08-28T00:00:00.000Z","description":"A pleasure to stay at the foot of a bell. Quiet place in the village.","location":{"latitude":45.45229551,"longitude":15.99787208},"category":{"name":"Wild Camping"}},{"id":106931,"name":"Stonehenge Camping ","date_verified":"2019-08-30T00:00:00.000Z","description":"Campsite has a rocky ground. Lots of mosquitos when we stayed.\r\nNice view.\r\n\r\nLEAVE ONLY FOOTPRINTS!","location":{"latitude":43.48519157156672,"longitude":16.36651486159895},"category":{"name":"Wild Camping"}},{"id":106947,"name":"Small Bay","date_verified":"2023-10-01T00:00:00.000Z","description":"Small bay with a few options to park your vehicle. Not suitable for big rigs. Directly at the beach with some shady spots. The beach is sadly full of plastic trash so make sure to pick some up before you leave. ","location":{"latitude":43.48515237073039,"longitude":16.157262574601987},"category":{"name":"Wild Camping"}},{"id":107108,"name":"AUTO CAMP AGAVA","date_verified":"2019-08-31T00:00:00.000Z","description":"The cheapest campsite that we could find in Dubrovnik. The place is nice and clean. 2 minutes walking from Sheraton beach which is very nice. Bus 10 to go to Dubrovnik station and Old Town. Very close to a small mall with market. We paid 112 kunas (around 15 euros) for 2 people + small tent","location":{"latitude":42.62462,"longitude":18.19459},"category":{"name":"Established Campground"}},{"id":107221,"name":"Plivitce Palace","date_verified":"2019-08-26T00:00:00.000Z","description":"Right near the road that goes to the National Park, this 4* hotel has nice accommodations with a very pleasant restaurant down below.","location":{"latitude":44.97228861598347,"longitude":15.647631929376022},"category":{"name":"Hotel"}},{"id":107243,"name":"Kumrevec","date_verified":"2019-08-31T00:00:00.000Z","description":"Flat area near village no traffic at night clean and quiet\r\nsur une surface asphalt√©e propre pas de trafic la nuit a 100 m du village\r\n","location":{"latitude":46.07419926,"longitude":15.67831088},"category":{"name":"Wild Camping"}},{"id":107244,"name":"Purga stadium","date_verified":"2019-08-31T00:00:00.000Z","description":"grass and gravel near soccer field quiet\r\n\r\nmi herbe mi parking a c√¥t√© du stade calme apr√®s le match\r\ngrass and gravel near soccer field quiet","location":{"latitude":46.21276914,"longitude":16.03711619},"category":{"name":"Wild Camping"}},{"id":107924,"name":"Forest Clearing","date_verified":"2019-08-31T00:00:00.000Z","description":"Nothing to write home about, but: a quiet clearing in the forest, underneath a newly constructed power line (didn't feel any effect, not high current). It's quiet, you are invisible from any road or building, fresh air. No installations, free. Nobody came past. Just 2km from the motorway exit. Access via good dirt road. Nice!","location":{"latitude":45.24610558,"longitude":15.26100677},"category":{"name":"Wild Camping"}},{"id":107942,"name":"Autocamp","date_verified":"2019-09-06T00:00:00.000Z","description":"Very basic campground run by Maria who speaks some German and does not speak English. It is directly on the sea with a public beach and cafe with pizzas. Nice views from the campsite. Electric, hot showers and washing machine available. Campground run down with garbage in the bushes, broken chairs which can be still used by guests. Lots of shade available. No WiFi but WiFi available at the cafe separate from the campground. 200 kn per night per 2 people and camper with electric.","location":{"latitude":43.474124609533206,"longitude":16.567117609099082},"category":{"name":"Established Campground"}},{"id":108284,"name":"Danica","date_verified":"2019-09-08T00:00:00.000Z","description":"Really nice and clean hostel. The owner Stefani is a really friendly lady who knows the needs of motorcyclists. - Beer and breakfast.\r\nWe paid 40‚Ç¨ for a double bed room including breakfast with air-condition.\r\n3 parking places behind the house also for campers. Motorcycles can be parked on the property.\r\nLaundry service is possible.\r\nSupermarkt and gas station within walking distance. Beach is around 200m away across the main road.\r\nExtremely clear water! Incredible! ","location":{"latitude":44.52914874124682,"longitude":15.070816894023231},"category":{"name":"Hostel"}},{"id":108286,"name":"Behind the Pines","date_verified":"2019-09-08T00:00:00.000Z","description":"Beautiful wild camping spot for 4 wheel drive rigs and lifted campervans.\r\nEpic sunset and staying overnight directly at the ocean.\r\nPossible parking down by the sea and even a good spot for swimming.\r\n\r\nTo get here you must follow a small gravel road till you pass a small pine forest. Directly left behind the pines starts the small trail wich ends by the sea.\r\nSmall rocks and muddy road condition, but easy to pass by a 4x4.","location":{"latitude":44.26985991237012,"longitude":15.490744862951436},"category":{"name":"Wild Camping"}},{"id":108436,"name":"Mlini","date_verified":"2021-11-20T00:00:00.000Z","description":"This is a small privately run campground for tents and campers. The showers and toilets are clean. Washing machine also available. Lots of shade is provided by trees.  Across the busy street is a shopping center with DM, grocery store etc. Some campers may hear the traffic on the street. Walk to the beach. WiFi included. 2 people and camper with electricity is 50+50+70= 170 kn for the high season which ends on September 10th. Bus takes you into town for 18 kn each way or take a boat for 100 kn return.","location":{"latitude":42.62462580580509,"longitude":18.193373540433303},"category":{"name":"Established Campground"}},{"id":108873,"name":"Camping by the River","date_verified":"2019-09-11T00:00:00.000Z","description":"Saw a few shelters and benches with quite a few mobile homes parking next to them. Ask the locals if I could camp there with a tent. The answer was positive. Seems nobody cared. \r\n\r\nThe lakeshore was a bit muddy. It's okay to swim though. Quite some fishers.","location":{"latitude":46.323687,"longitude":16.593996},"category":{"name":"Wild Camping"}},{"id":109035,"name":"careless whispers","date_verified":"2019-09-13T00:00:00.000Z","description":"Quiet scenic beach, hidden behind a long rocky road and bushes. There aren't any houses nearby. We arrived here around 6pm and only one other couple were still swimming. After they left, we made food and had a couple of drinks. Afterwards we slept on the beach in the beautiful moonlight. No one interrupted us, cars can't see you from up the hill. Don't go down the small rocky road by car, but park just at the beginning of the little road. There is place for 2-3 cars. 100% would do it again. ","location":{"latitude":43.266649123114966,"longitude":16.570249382710035},"category":{"name":"Wild Camping"}},{"id":109554,"name":"Forrest Campsite","date_verified":"2019-09-18T00:00:00.000Z","description":"A wonderful campsite in the forest. A great place for one or more nights. ","location":{"latitude":44.57945413401056,"longitude":15.106781682968675},"category":{"name":"Wild Camping"}},{"id":109777,"name":"stani≈°ta","date_verified":"2022-07-18T00:00:00.000Z","description":"excellent place to camp,beautiful view, beware of wild animals","location":{"latitude":44.54716654,"longitude":15.06486949},"category":{"name":"Wild Camping"}},{"id":109814,"name":"K√¥sljun","date_verified":"2021-08-11T15:08:19.000Z","description":"Very nice location for wildcamp. 30 meters from stoney sea side and shallow waters, beautiful for swim. One house nearby but for the rest very quiet with some trees and bush to hide for strong september winds.. road is on about 70 meters with bush between, but sometimes cars pas by heading to village Povljana. Lots of opportunities to put your car. Even near water, but peobably locals use this stoney beach to in summer time weekends.","location":{"latitude":44.38179843830244,"longitude":15.113110243791356},"category":{"name":"Wild Camping"}},{"id":110067,"name":"Jaron Lake Park","date_verified":"2022-07-28T00:00:00.000Z","description":"Camp in parking lot, next to lake. Cost 150kn. Toilets in various places. Outdoor shower next to beach. Walk to outdoor bars. Nice place.","location":{"latitude":45.78556175,"longitude":15.91071493},"category":{"name":"Informal Campsite"}},{"id":110315,"name":"Camping Labadusa","date_verified":"2019-09-23T00:00:00.000Z","description":"I had a really hard time finding a spot to wild camp with a tent along the rocky coastline so went to look for an affordable campsite. Paid just over ‚Ç¨12,- (91 HRK) for one person, tent and motorcycle. Suitable for any kind of transport and accommodation you have and a nice location at a good beach for swimming. Might be a bit busy during the day and in peak season but it's a comfortable place to stay with good amenities, WiFi, a restaurant next door and a baker that comes by in the morning. Don't know why, but there's no electricity between 10 pm and 7 am.\r\n\r\n","location":{"latitude":43.481685463379584,"longitude":16.24578008429729},"category":{"name":"Established Campground"}},{"id":110316,"name":"Nice field, good view","date_verified":"2019-09-24T00:00:00.000Z","description":"Convenient spot on the way to or from Slovenia. The track that gets you here is on maps.me. Definitely 4x4 or motorcycle and not accessible for big rigs since the track is too narrow. Not really fast from the road so you'll here some of it. There's a military base close by. Talked to the guard and told him I was going to camp in the hills and he did not tell me that I couldn't. Lots of wildlife around. Wild goats, horses and cows so if you don't like the sounds they make you'd better not go here.","location":{"latitude":45.38826672830189,"longitude":14.489027978865884},"category":{"name":"Wild Camping"}},{"id":111327,"name":"Krka River Crossing","date_verified":"2023-05-23T00:00:00.000Z","description":"This bridge going over the Krka River has a width restriction of 2.2m.","location":{"latitude":43.90614,"longitude":15.97522},"category":{"name":"Warning"}},{"id":113088,"name":"Little harbour","date_verified":"2019-10-17T00:00:00.000Z","description":" This place is situated on a small harbour in a dead end, right in front of a campsite. This one was closed mid-october. I stayed here one night and didn't see anybody. The place is quiet, for once no barking dogs, you can still hear the road but not too loud. Nice view and sunset. It must be pleasant to stay in this little campsite during opening season as well.To get there follow the Camping Prosika sign from main road.","location":{"latitude":43.844279222884175,"longitude":15.61649205705375},"category":{"name":"Informal Campsite"}},{"id":113099,"name":"free camp vivi","date_verified":"2020-08-08T00:00:00.000Z","description":"Free Camp Vivi in ‚Äã‚Äãa field at an individual at 30-40 minutes from the lake of plivitce (max 3m height). Stayed here for one night. 6 other vans where staying as well. The owner is very nice and friendly. The owner speaks a little bit English and is learning it every day more and more. Do not hesitate to give her a little help (DIY, purchase of honey or pancakes among others), \r\nshe has the project to create sustainable facilities sanitary types, terrace with tables to eat and all improvements allowing travelers to be well settled. No electricity and no water point, the village is not connected (the water comes from a well), it should be installed in 2019.","location":{"latitude":44.83640610643617,"longitude":15.531318182953829},"category":{"name":"Wild Camping"}},{"id":113936,"name":"Ranc Ramarin","date_verified":"2023-09-24T00:00:00.000Z","description":"Restaurant, Horse Ranch, Camping.\r\nGot 8 Camping spots with water and power. Next to water. Away from Road.","location":{"latitude":45.179555429115474,"longitude":18.1764409170509},"category":{"name":"Established Campground"}},{"id":117855,"name":"E17 Autoservis","date_verified":"2019-12-02T00:00:00.000Z","description":"Very helpful garage/mechanic, mechanic/owner is native English speaker. They are also contactable through facebook","location":{"latitude":44.114854,"longitude":15.251382},"category":{"name":"Mechanic and Parts"}},{"id":120125,"name":"Kva Hostel","date_verified":"2023-05-11T09:31:47.000Z","description":"The location really can't be beaten. It's right on the river walk and near all the bars and restaurants. The entrance has double doors and the owner was happy to let me park the motorcycle inside the building for the night - a rarity for Europe! \r\n\r\nfast WiFi, nice common area, good kitchen.\r\n\r\ndorm was ‚Ç¨13/night","location":{"latitude":45.7510892,"longitude":16.30196094},"category":{"name":"Hostel"}},{"id":120567,"name":"youth hostel","date_verified":"2019-12-30T00:00:00.000Z","description":"There aren't too many affordable options in this town outside of this place. ‚Ç¨24 for dorm. ‚Ç¨34 for private single.\r\n\r\nno dedicated looking but I left my Moto out front of the sidewalk and chained it to a barrier with no issues.\r\n\r\nonly complaint is that both breakfast end e and checkout happens by 9am.\r\n\r\n\r\n","location":{"latitude":45.7510892,"longitude":16.30196094},"category":{"name":"Hostel"}},{"id":124807,"name":"Free tap fresh water","date_verified":"2020-02-09T00:00:00.000Z","description":"With standard threads for hose. Some garbage bins next to it. head to the top of the gravel road for a picnic spot and fire pitt that you can camp overnight. ","location":{"latitude":44.99317417,"longitude":15.64119421},"category":{"name":"Water"}},{"id":124859,"name":"Free Parking Lot","date_verified":"2023-06-04T13:05:59.000Z","description":"It‚Äôs a free parking place almost at the copacabana beach, plenty space for big rigs, We park our Motorhome of 6,5 meters and stay for two nights in low season, maybe in higher seasons they don‚Äôt let park, I don‚Äôt know ","location":{"latitude":42.66265630260358,"longitude":18.06669976563944},"category":{"name":"Informal Campsite"}},{"id":126597,"name":"Hostel 4 you","date_verified":"2020-02-25T00:00:00.000Z","description":"new hostel with private parking ($5) in a dental clinic building. a bit weird but super clean and big balcony to enjoy the sunset. ","location":{"latitude":44.122141,"longitude":15.237278},"category":{"name":"Hostel"}},{"id":126845,"name":"guesthouse Isabel la catolica","date_verified":"2020-02-26T00:00:00.000Z","description":"nice cozy familiar hostel. facilities are so so but the host and the atmosphere make up for it. parking for one motorcycle only. \r\nfree apples, bananas, tea, coffee, milk, bread, pasta, noodles and....even Laundry! \r\ncheap during winter. but dubrovnik could be expensive in summer i am sure.","location":{"latitude":42.64486392,"longitude":18.10190174},"category":{"name":"Hostel"}},{"id":127257,"name":"old airplane","date_verified":"2021-12-28T00:00:00.000Z","description":"Parking lot with old military airplane. It's just there man. Crazy. It's an old 50 or 60s airplane and you can climb over it and all. There is also a deserted airbase nearby but there was police when I passed by and you can't be there. At the parking lot where the old airplane is it is fine with you can stay at night is my experience. Police came came at tonight and checked my passport but they were very friendly. I think they look for immigrants.more than anything elso\r\nThis place is ü§üüèª\r\n","location":{"latitude":44.85756416229041,"longitude":15.735862904647261},"category":{"name":"Wild Camping"}},{"id":127259,"name":"Hunter spot","date_verified":"2019-10-08T00:00:00.000Z","description":"A gravel road on river side leads into both directions. We stayed on the left side next to a hunting spot. Very idyllic, only some noise from the road far away. ","location":{"latitude":45.523611421276925,"longitude":16.235426233852653},"category":{"name":"Wild Camping"}},{"id":128633,"name":"dog beach ","date_verified":"2022-12-05T00:00:00.000Z","description":"Gravel parking with greatviews over the bay and the bridge. Next to the water above a small harbour. I stayed here for a night and also in daytime and heard from several locals that it is no problem to park here out of season. ","location":{"latitude":42.66399703585283,"longitude":18.072093312705917},"category":{"name":"Wild Camping"}},{"id":129063,"name":"Eco Gecko‚Äòs Mini Autocamp","date_verified":"2018-06-03T00:00:00.000Z","description":"Small and family owned camp ground in the large garden of the owner.\r\nThe street to the camp is a little narrow, this is why Big Rigs probably not fit.","location":{"latitude":45.4038166,"longitude":13.6932674},"category":{"name":"Established Campground"}},{"id":129065,"name":"Mini-Camping Marko","date_verified":"2018-06-19T00:00:00.000Z","description":"Nice small camp ground with good facilities. We payed 130 Kuna (~18‚Ç¨) per Night for two persons and a camper.","location":{"latitude":43.54290901027332,"longitude":15.956963515180277},"category":{"name":"Established Campground"}},{"id":131353,"name":"LPG kamp gas fill statino","date_verified":"2023-07-25T22:25:39.000Z","description":"Refill Station for Propan/Butan. All type of bottles are accepted, no own adapter is needed. Friendly, fast, cheap!!\r\nAddress: Ul. Hrvatskog Sabora 8a, 23000, Zadar, Croatia","location":{"latitude":44.1223227,"longitude":15.261322},"category":{"name":"Propane"}},{"id":131601,"name":"Camping Amines Sirena","date_verified":"2020-06-21T00:00:00.000Z","description":"Big Campground with shady pitches below big trees an a few of luxury pitches directly at the water. Price depents on the type of pitch you take. Starts from 20‚Ç¨ up to 70‚Ç¨ in high season.","location":{"latitude":45.314098905739755,"longitude":13.57961281095338},"category":{"name":"Established Campground"}},{"id":131938,"name":"Camp Korana","date_verified":"2020-06-27T00:00:00.000Z","description":"Owner driven spot, along the Korana River... 20‚Ç¨/night (2 adults, 1 Toyota Landcruiser). You can use 2 canoes to take a ride to a small water fall (distance approx 1000m). Area is big, so it is quiet at night.","location":{"latitude":45.254500815687,"longitude":15.545339556425386},"category":{"name":"Established Campground"}},{"id":132041,"name":"Trokascan ","date_verified":"2020-06-23T00:00:00.000Z","description":"Park with shadow next to the entrance of the castle. Quiete. Unpaved but flat. ","location":{"latitude":46.2588685685919,"longitude":15.947744498417272},"category":{"name":"Informal Campsite"}},{"id":132858,"name":"Vrata Velebita","date_verified":"2020-07-12T00:00:00.000Z","description":"Natural Campground in the Velebit Mountains abt. 400m above sea level. Take care the road is steep, small and very curvy, not for big rigs, 4WD not necessary. Place is partly shaded, very quiet, clean toilets and hot showers, washing mashine available. There is one column for electricity (√ó4). The owner may invite you to visit his small museum and offer some special grappa. Good ground for tents, bikers are wellcome.","location":{"latitude":44.3674,"longitude":15.32575},"category":{"name":"Established Campground"}},{"id":133124,"name":"Road 8","date_verified":"2020-07-16T00:00:00.000Z","description":"Adria Oil gas station; free water tap next to the tire pressure pump at the back of the station.","location":{"latitude":43.32119866576654,"longitude":16.992188271983142},"category":{"name":"Water"}},{"id":133927,"name":"Marsh land with yellow flowers","date_verified":"2020-07-29T00:00:00.000Z","description":"You take a dirt road in, get over the dam/hill - then drive a bit. Then you come to a big open marsh land, we camped under a big tree, view open Field for 1,8km in two direction. Yellow flowers as fare the eye can see. View to herd of cows and horses. Talked to the farmer, a friendly guy, surprised to see someone camp here. 4wd only. Area not good in winter time, it gets floded.","location":{"latitude":45.535767812100715,"longitude":16.445499619841392},"category":{"name":"Wild Camping"}},{"id":134618,"name":"Pine Wood on the sea","date_verified":"2023-09-09T08:40:32.000Z","description":" A Beautiful Place under Trees with direkt connection to the sea. Some people showed up at 11pm but we have no roblem to stay there 2 nights. ","location":{"latitude":44.19638536379482,"longitude":15.486770554900968},"category":{"name":"Wild Camping"}},{"id":134931,"name":"beautiful wildcamp next to sea","date_verified":"2023-06-19T00:00:00.000Z","description":"At the end of a dirt road going nowhere. Next to the sea, just a short walk of 2min. No beach, but easy rocks for swimming.\r\nNo 4x4 needed, normal car will do, but some brush in the middle of the road and bit Rocky, so maybe not so nice for your precious brand new ride ;)\r\nRoad was not on Maps.me or Google, but not hard to find ","location":{"latitude":42.79318,"longitude":17.78834},"category":{"name":"Wild Camping"}},{"id":135006,"name":"Sutivan Avtocamp","date_verified":"2020-08-13T00:00:00.000Z","description":"Nice little camp, room for about 5 vans and some more tents. Maybe a bigger RV but I would call 1st (the turn at the bottom of the hill into town is tight). We camped under a fig tree with our motos and had figs everyday (mid August). There is a small kitchen with fridge, stove, sink and some cook ware. Bathrooms are clean and communal. Wifi works at the front door of the house (they have apartments too), the beach is 1min walk, town is 10min. Nice base to explore the island, I looked at the camps around Bol and they were packed. We paid 120kn per night for 1 tent, 2 people. ","location":{"latitude":43.38549785088214,"longitude":16.48458127389039},"category":{"name":"Established Campground"}},{"id":135046,"name":"Right next to great pebble beach","date_verified":"2021-07-15T00:00:00.000Z","description":"At the end of a gravel track, next to a beautiful pebble beach, small spot for one car. \r\nNeed to arrive quite late as there will be people on the beach (and there was a car parked on the spot) until 21ish. This was mid high season.\r\n5 minute walk to a busier beach, with cool drinks, toilets, and snacks. \r\nNormal car is OK, bigger vans will struggle with the tight bends and turnaround. \r\n\r\n","location":{"latitude":43.82711635167403,"longitude":15.56881625768253},"category":{"name":"Wild Camping"}},{"id":135057,"name":"Lika Camping","date_verified":"2022-06-02T00:00:00.000Z","description":"Nice little place with 20 spots, water/electric available. There are some trees but not a huge amount of shade but even with an RV you can make it work. We put the motos \u0026 tent right under the trees in the grass. Toilets/showers are brand new and clean. There is a washing machine, sinks for dishes and a pool if you want to swim. RV dump station and the RV toilet thing. The owner is super nice, speaks English \u0026 some German. We paid 160kn for 2 people/1 tent. It's simple but pleasant, we were the only ones here and there is a Tommy supermarket in town if you need stuff. Good stop for a night (better than paying 30‚Ç¨ an hour north at Plitvice).","location":{"latitude":44.30495143290445,"longitude":15.86309118602641},"category":{"name":"Established Campground"}},{"id":135235,"name":"Kamping Romantik","date_verified":"2020-08-16T00:00:00.000Z","description":"Nice place, but no shade (trees are tiny) and expensive. We paid 29‚Ç¨ for 1 night, 2 people, 1 tent, 2 motos, no electricity. There is a nice pool, bathrooms, fridge, wifi, and sinks for dishes but it's too expensive. ","location":{"latitude":45.08133060577445,"longitude":14.101312911661342},"category":{"name":"Established Campground"}},{"id":136718,"name":"Karinovo","date_verified":"2020-09-09T00:00:00.000Z","description":"Refuelling gaz for our seiss bottle. Nice people. ","location":{"latitude":45.11308410085406,"longitude":14.519387645273676},"category":{"name":"Propane"}},{"id":137226,"name":"Villa Mare\u0026Filip","date_verified":"2020-09-19T00:00:00.000Z","description":"Great place for morcycle trips. Very close distance to Dubrovnik. Only 11km. Sea and a small beach just in front of apartment.  Very friendly owner. Safe parking for motorcycle. Super clean.  100% recommendation.","location":{"latitude":42.70015484900762,"longitude":18.040776539443574},"category":{"name":"Hotel"}},{"id":138299,"name":"Kamp Tunarica","date_verified":"2020-08-18T00:00:00.000Z","description":"Family with 3 small kids, a lot of shade but hard to find even ground for  tents. We were not happy with the beach  and water was not totally clean. The camp is in the nature and the toilets are new and clean. It was fine, but could be better.","location":{"latitude":44.96993608311281,"longitude":14.09899321386041},"category":{"name":"Established Campground"}},{"id":139261,"name":"Linden Tree Retreat Center","date_verified":"2020-10-31T00:00:00.000Z","description":"True Resort\r\n\r\nLinden Tree Retreat \u0026 Ranch is a small, privately-owned and operated eco-safari-style resort, open seasonally to guests from all over the world\r\n\r\n","location":{"latitude":44.64963833333333,"longitude":15.158006666666665},"category":{"name":"Hotel"}},{"id":145147,"name":"Off Season Beach","date_verified":"2021-08-13T00:00:00.000Z","description":"Beautiful beach with parking!I have been here in April when it was still a little chilly. So the beach was completely empty and I have dared to stay for a \r\n night. There are no signs that camping is forbidden here but I could imagine that it‚Äôs not so easy in season here.","location":{"latitude":45.0643002072291,"longitude":14.70182756045024},"category":{"name":"Wild Camping"}},{"id":149936,"name":"End of island","date_verified":"2022-02-09T00:00:00.000Z","description":"Beautiful place, at end of gravel road. Very clean, no visitors at night. ","location":{"latitude":43.48699046017231,"longitude":16.386573960918454},"category":{"name":"Wild Camping"}},{"id":149950,"name":"Trgovina Pontem","date_verified":"2021-03-21T00:00:00.000Z","description":"Small refreshment stand with awning: coffee, beer, soft drinks, wifi, toilet, tap water for cleaning,electricity","location":{"latitude":42.94737,"longitude":17.53479},"category":{"name":"Restaurant"}},{"id":149951,"name":"Near Bus Stop","date_verified":"2021-03-24T00:00:00.000Z","description":"Maybe 30 yards down a gravel road (which starts at the southern edge of the bus shelter), there are 2 to 3 secluded spots to spend the night. Bring your own food and water.\r\n\r\nThere may be a bit of noise from the main roadway. Then, again, it may not bother you.","location":{"latitude":43.17415397,"longitude":17.18950287},"category":{"name":"Wild Camping"}},{"id":149952,"name":"South of Zagreb","date_verified":"2021-05-01T00:00:00.000Z","description":"knool in large field about 70 meters behind caffe/bar. Gravel road leads to camping site.","location":{"latitude":45.75772286,"longitude":15.86630034},"category":{"name":"Wild Camping"}},{"id":150501,"name":"Parking Area","date_verified":"2023-02-08T00:00:00.000Z","description":"Small free Parksite\r\n\r\n10min to Basilika and Old City of Porec\r\nParked here 4h no problems","location":{"latitude":45.23172610395483,"longitude":13.60026697681416},"category":{"name":"Short-term Parking"}},{"id":150502,"name":"Old clay pigeon shooting site","date_verified":"2021-05-12T00:00:00.000Z","description":"This is a old clay pigeon shooting site but no more in use. \r\n\r\nThrough a small street which is around 100m from a side street you reach this perfect site via a gravel track. \r\n\r\nWe stayed overnight and had no issues. \r\nNo cars passed us. You can not see this place from the street. There is a lot of space to stay 4-6 caravans. \r\n\r\nSometimes you can hear a car from the street 100m away but not often. \r\n\r\nWe stayed here from 10.05.21 overnight. \r\nI wormly recommend you this great site. You are alone here. \r\n\r\nCheck the Pictures! ","location":{"latitude":45.00569382890612,"longitude":13.806393220670328},"category":{"name":"Wild Camping"}},{"id":150503,"name":"Near the bees","date_verified":"2021-05-12T00:00:00.000Z","description":"Small meadow maybe good for camping with tent","location":{"latitude":45.004657203763045,"longitude":13.802147308882656},"category":{"name":"Wild Camping"}},