[{"id":8084,"name":"Herk en Stade","date_verified":"2015-06-22T19:06:18.773Z","description":"Nice park spot in quiet residential area. 7 parking spaces available.  No charge for overnight.  Toilet emptying.   Water \u0026 elec at small fee.  Toilet block on site. Pub/restr short walk down road, but we didn't try it. ","location":{"latitude":50.933896892638536,"longitude":5.166694053092701},"category":{"name":"Informal Campsite"}},{"id":8492,"name":"Brugge I Old Town","date_verified":"2023-04-07T00:00:00.000Z","description":"Free Parking just next to the street. Very loud due the traffic at daytime. Nice view to the waterfront and very close to the old town. OK for one or two nights.","location":{"latitude":51.2011,"longitude":3.23319},"category":{"name":"Informal Campsite"}},{"id":10951,"name":"Camperspot Vogelzanglaan","date_verified":"2022-05-12T00:00:00.000Z","description":"near expo buildings. No toilet no shower. Price €10,40 per night (2 persons and car), To citycenter: Bus 22 to Groenplaats and tram 2 or 6 to Central Station","location":{"latitude":51.1895,"longitude":4.4005833333333335},"category":{"name":"Established Campground"}},{"id":10952,"name":"Parking La Roche","date_verified":"2022-10-31T00:00:00.000Z","description":"Bushcamp on the parking in front of official campsite. Walking distance to village","location":{"latitude":50.19025,"longitude":5.57345},"category":{"name":"Informal Campsite"}},{"id":10996,"name":"Uzbek Embassy","date_verified":"2021-08-13T00:00:00.000Z","description":"Uzbek embassy in Brussels","location":{"latitude":50.80278333333333,"longitude":4.388216666666667},"category":{"name":"Consulate / Embassy"}},{"id":15906,"name":"Parking/Campersite","date_verified":"2016-04-24T20:40:17.555Z","description":"Just out of downtown (about 1 km) Brugge, at the yacht club are camper places for small and big rigs. It's also a big bus station. The price is € 25,00 per day/24 hours it's include electricity. Big rigs can park at the end of the bus station, but it's without electricity. At the yacht club is a restaurant. It's a easy walk to downtown.","location":{"latitude":51.19509,"longitude":3.22644},"category":{"name":"Informal Campsite"}},{"id":19183,"name":"Official Free Camping","date_verified":"2016-07-17T17:57:04.677Z","description":"Free official camping next to the river and 5 min walk from town market square  ","location":{"latitude":50.84664815575894,"longitude":2.893490809949947},"category":{"name":"Informal Campsite"}},{"id":33806,"name":"Blaarmeersen Camping","date_verified":"2020-09-04T11:03:22.000Z","description":"Probably the closest campsite to Ghent.  A little tatty and noisy by the road but good to walk or cycle the 4km to the city.","location":{"latitude":51.04635043540135,"longitude":3.6800837237422166},"category":{"name":"Established Campground"}},{"id":33807,"name":"Camping Memling, Brugges ","date_verified":"2023-09-15T00:00:00.000Z","description":"Nice clean campsite only 3km from centre of Brugges.  Wifi is rubbish however- terrible signal and 1 hour tickets","location":{"latitude":51.20597464502901,"longitude":3.261749474334774},"category":{"name":"Established Campground"}},{"id":33855,"name":"Camping Jeugdstadion (Ypres)","date_verified":"2021-07-17T21:35:27.000Z","description":"Small campsite.  Good value but you will be close to your neighbours.  Wifi slow.  Very close to town.","location":{"latitude":50.8470283588868,"longitude":2.89753516204925},"category":{"name":"Established Campground"}},{"id":35191,"name":"Hermans Family - overlanders","date_verified":"2023-02-01T00:00:00.000Z","description":"Being Overlanders ourselfs (we travelled South America as a family in 2016 -2017), we welcome all overlanders travelling in Europe! Be our guests!\r\nWhatsapp: +32494888446\r\nEmail: barbaradergent@yahoo.com","location":{"latitude":50.799600868533176,"longitude":4.765601456169752},"category":{"name":"Established Campground"}},{"id":35591,"name":"ACS","date_verified":"2017-05-22T15:59:31.086Z","description":"Shipping Agent used by ITS Transport for container shipment from Colombia to Europe.","location":{"latitude":51.2513,"longitude":4.24838},"category":{"name":"Vehicle Shipping"}},{"id":36000,"name":"Lac de la Platte Taille, not far from the lake.","date_verified":"2023-05-27T00:00:00.000Z","description":"Small but nice place in the forest! \nPlace for five or six small rigs (Defender/Landcruiser).","location":{"latitude":50.19288900312986,"longitude":4.363339841369878},"category":{"name":"Wild Camping"}},{"id":38936,"name":"camping officiel arlon","date_verified":"2023-05-27T00:00:00.000Z","description":"Good spot for a stop over or relaxed stay. Washing and tumble dryer for clothes. Many car services close to camp site. ","location":{"latitude":49.70202337154831,"longitude":5.8078574513082915},"category":{"name":"Established Campground"}},{"id":40043,"name":"Bertrix p rue du babinay","date_verified":"2017-07-31T18:56:54.178Z","description":"Near forest\nStone table for eating\n\nPlace for campfire\n\nNear an old quarry\n\n","location":{"latitude":49.810397,"longitude":5.253002},"category":{"name":"Wild Camping"}},{"id":41337,"name":"Ethiopian Embassy","date_verified":"2017-08-18T21:33:29.667Z","description":"Visa on the spot. \nI went for a 6 month multi entry, 72 EUR. ","location":{"latitude":50.838743526559064,"longitude":4.402649594625979},"category":{"name":"Consulate / Embassy"}},{"id":41588,"name":"Maboge 24h wildcamp","date_verified":"2020-07-01T13:01:11.404Z","description":"A pretty grassy and quiet spot next to the river Ourthe, for max. 50 vehicles (campers/overlanders). Overnight stay allowed - max. 24 hours and free of charge.\n\nFrom la Roche en Ardenne Drive 6 km past all the huge campsites to find the spot at Maboge village.","location":{"latitude":50.16707060397618,"longitude":5.6264751311443995},"category":{"name":"Established Campground"}},{"id":42419,"name":"Harelbeke","date_verified":"2017-09-06T00:00:00.000Z","description":"8 spots for campers on asphalt. You pay 5 euro per camper. Water, electricity and wifi are included. There are sport facilities next to the spot. You can use the toilets free of charge during opening hours. Showering costs 1,25 pp. It seems you can park outside the fence without any problems if the place is full. Perfect place for a stop over! ","location":{"latitude":50.8459203,"longitude":3.3096376},"category":{"name":"Established Campground"}},{"id":44602,"name":"Blegny Mine","date_verified":"2021-12-19T00:00:00.000Z","description":"24 h free at an old Mine site. Visits possible","location":{"latitude":50.6854741,"longitude":5.723313},"category":{"name":"Established Campground"}},{"id":45384,"name":"Arlon","date_verified":"2017-10-27T16:19:16.553Z","description":"Next to the firestation. Free. 600 m from centre.","location":{"latitude":49.690133333333335,"longitude":5.819083333333333},"category":{"name":"Informal Campsite"}},{"id":49192,"name":"Fishing club","date_verified":"2018-01-01T00:00:00.000Z","description":"This is a parking lot next to some fishing ponds. It's an ideal and quite place to overnight. ","location":{"latitude":50.98516032104472,"longitude":5.333438431849082},"category":{"name":"Informal Campsite"}},{"id":49667,"name":"De Kluisberg","date_verified":"2018-01-07T16:23:23.597Z","description":"Parking lot near the Kluisberg. There ares some nice trails you can walk here. Beautiful view on top of the Kluisberg.","location":{"latitude":50.992694352800946,"longitude":5.280494559561164},"category":{"name":"Informal Campsite"}},{"id":49668,"name":"Race Track Terlaemen","date_verified":"2018-01-07T00:00:00.000Z","description":"This is a huge parking at the Racetrack of Terlaemen-Zolder. Perfect place to eat, sleep and overnight. There are also other spots around the racetrack where you can park and sleep.","location":{"latitude":50.99440669179987,"longitude":5.267334468667644},"category":{"name":"Informal Campsite"}},{"id":52565,"name":"immigration","date_verified":"2018-02-15T00:00:00.000Z","description":"This is the place to go before boarding and after disembarking.","location":{"latitude":51.27739411778748,"longitude":4.331041602417827},"category":{"name":"Customs and Immigration"}},{"id":52566,"name":"Agent Grimaldi","date_verified":"2018-02-15T08:45:35.989Z","description":"To embark for America from the south after moving to immigration","location":{"latitude":51.27377393189818,"longitude":4.2044411692768335},"category":{"name":"Vehicle Shipping"}},{"id":57710,"name":"Zillebeke (+Informal Campsite)","date_verified":"2018-04-22T00:00:00.000Z","description":"Here you can park overday and overnight, there is trash bins, potable water, dumping station. I think the price is 8 euros/day. Beautiful lake, Tearoom at walk distance. Ieper is a beautiful medieval town, highly recommended. Just awesome site.","location":{"latitude":50.83559,"longitude":2.90518},"category":{"name":"Sanitation Dump Station"}},{"id":58802,"name":"Camping Maka","date_verified":"2023-08-30T00:00:00.000Z","description":"Outdoor camping with a great overlanding spirit by the owners.","location":{"latitude":49.8087174,"longitude":5.1647016},"category":{"name":"Established Campground"}},{"id":61750,"name":"Bouillon Recreation Area","date_verified":"2023-11-15T00:00:00.000Z","description":"A site especially for motorhomes. Free of charge. Quiet. However there is a small building with occasional daytime generator-like noise. Room for lots of motorhomes. Near river and forest.\r\n\r\nFor electricity, you need special coins which you can get at a \"tourist house\" — wherever that house is.","location":{"latitude":49.79021123,"longitude":5.05693963},"category":{"name":"Informal Campsite"}},{"id":62349,"name":"Grillplatz","date_verified":"2023-10-22T00:00:00.000Z","description":"Quiet place with a firepit and some tables, very close to the old railway, now used as a bike way (Vennbahn). Stayed one night with my Rooftop Tent. Friendly People and a small river nearby","location":{"latitude":50.40503511277602,"longitude":6.152535073001557},"category":{"name":"Wild Camping"}},{"id":62375,"name":"Thieu ","date_verified":"2023-11-19T00:00:00.000Z","description":"A nice location directly situated along the canal near water locks in the heart of the village. Free of charge. Room for 15-20 rigs. No amenities.","location":{"latitude":50.47144971,"longitude":4.08970634},"category":{"name":"Wild Camping"}},{"id":63445,"name":"Sixtusbos  Westvleteren","date_verified":"2018-06-22T00:00:00.000Z","description":"A nice spot with a beautiful view and it is very peaceful. The abby of westvleteren is +- 400 m away. Their you can taste the best trappist of belgium. ","location":{"latitude":50.898779873249985,"longitude":2.709768975092026},"category":{"name":"Established Campground"}},{"id":63604,"name":"Wiesenbach","date_verified":"2020-03-18T00:00:00.000Z","description":"Camping with cottages and places for a rather small number of tents, caravans and campers. Each place is surrounded by hedges. Swimming pool next to  campground (extra fee). Adequate showers and toilets, but only one dish washing sink (in the ladies section) and no laundry facilities. Good WiFi.\r\nfee= € 15 (2 adults, camper).","location":{"latitude":50.265927788442816,"longitude":6.140901573524378},"category":{"name":"Established Campground"}},{"id":65430,"name":"La Roche en Ardenne","date_verified":"2018-07-18T00:00:00.000Z","description":"Really nice Ardenne Village to go by bike from the overnight stop in Maboge","location":{"latitude":50.18016401,"longitude":5.57646716},"category":{"name":"Tourist Attraction"}},{"id":67165,"name":"Auberge de la jeunesse","date_verified":"2023-09-30T00:00:00.000Z","description":"Motorhome area in the enclosed car park of the youth hostel. Service area. Drainage on the ground gray water, Drainage black water, water, electricity, breakfast included. € 30 the first night, € 25 the next. Very nice home. Quiet and secure in the heart of Brussels. Metro 10 minutes walk. Max. 10m. 5 places max.\r\n\r\nAire de camping-car sur le parking clos de l'auberge de la jeunesse. Aire de service. Vidange au sol eau grise, Vidange eaux noires, eau, électricité, petit déjeuner inclus. €30 la première nuit, €25 les suivantes. Accueil très sympa. Calme et sécurisant en plein Bruxelles. Métro à 10mn à pieds. Pl maxi 10m. 5 places maxi.","location":{"latitude":50.85282700136304,"longitude":4.334177356213331},"category":{"name":"Established Campground"}},{"id":68402,"name":"Puurs Camperspot Free Camp","date_verified":"2018-08-16T00:00:00.000Z","description":"RV parking, with dumpstation and potable water. Free, maximum stay 48 hours, 5 large parking spots available, paved. Every spot is exually a combination of 4 normal parkingspots. 5 minute walk to the center, with Delhaize supermarket. Easy access for all rigs. Peaceful and quiet. Water only from April first to October 15-th.","location":{"latitude":51.0748157040695,"longitude":4.284306183558916},"category":{"name":"Established Campground"}},{"id":71135,"name":"bois de Biolin ","date_verified":"2018-09-01T00:00:00.000Z","description":"Can park in the forest close to the bbq houses, lots of trekkers during summertime (tents) ","location":{"latitude":50.034202,"longitude":5.251441},"category":{"name":"Informal Campsite"}},{"id":74919,"name":"Double BVBA","date_verified":"2018-10-28T00:00:00.000Z","description":"Campsite with warm showers for €1.50 and an excellent shop with everything you could possibly want for camping/overlanding. ","location":{"latitude":50.78202,"longitude":2.74219},"category":{"name":"Established Campground"}},{"id":76976,"name":"Mont St Aubert","date_verified":"2018-11-24T00:00:00.000Z","description":"Petit parking isolé, éloigné de la circulation au milieu des bois. top  \r\n\r\n\r\nSmall car park far from the traffic in the middle of the woods","location":{"latitude":50.65551,"longitude":3.40197},"category":{"name":"Wild Camping"}},{"id":79840,"name":"Camping de Molen","date_verified":"2018-11-16T00:00:00.000Z","description":"Camping with wifi, toilets and showers, in low season its not easy to get in, the car taker is not often ther, but if you speak with the permanent camper the let you in and you pay if he is there. Price for a rv with 2 people is 18euro. Be careful if your car hasn't euro 6, antwerben has a \"umweltzone\" and the campground is inside.you have to register on www.lez.antwerpen.be And pay per day that you drive 35 euro","location":{"latitude":51.23389,"longitude":4.39387},"category":{"name":"Established Campground"}},{"id":80703,"name":"Kalmthoutse Heide","date_verified":"2022-08-02T00:00:00.000Z","description":"Free camping place only for campers and 4x4. About 10 spots. You can buy water at a tap for €1/100 liter. And there are some electricity plugs.\r\nMaximum time to stay is 48 h.\r\nSome shades.\r\nNext to restaurant.\r\nAcross the mainroad you can walk in to the Kalmthoutse heide nature park. (free entrance) for nice marked walks.","location":{"latitude":51.37662639,"longitude":4.45016404},"category":{"name":"Informal Campsite"}},{"id":85834,"name":"Zwarteberg","date_verified":"2019-03-06T00:00:00.000Z","description":"Its not the most beautiful place on earth and its close to highway, but who knows Belgium also knows that to find privacy away from others eyes is hard. Woods and privacy thats exaxtly what you can expect from this place. If you drive deep on the grvel/muddy route you can turn behind the small forrest and you are hidden for good. When rainy maybe the route is muddy, but I didnt have any issues even after three days rain. I came in the evening and stayed till 9am with no issues at all. Maybe only the noise from highway is bad, but for one night more than good if you like to be in green and not to stay in concrete parking lot elswhere in centre if towns.","location":{"latitude":50.90087777777778,"longitude":4.095519444444444},"category":{"name":"Wild Camping"}},{"id":86150,"name":"Le vedeur","date_verified":"2019-03-10T00:00:00.000Z","description":"Motorhome campground close the old village of Durbuy. Sites along the river. Clean toilet and hot showers. \r\n\r\nPaid €10 for the camper + €5,5 p.p. Incl electricity and water","location":{"latitude":50.357749169484,"longitude":5.457007938520839},"category":{"name":"Established Campground"}},{"id":86236,"name":"Parkheide","date_verified":"2019-03-10T00:00:00.000Z","description":"Parking lot associated with restaurant and kids playground. ","location":{"latitude":50.98856824456447,"longitude":4.726311260195677},"category":{"name":"Informal Campsite"}},{"id":93033,"name":"parking at osbroek park","date_verified":"2019-05-18T00:00:00.000Z","description":"ADMINISTRATOR NOTE: be aware that wild camping in general is illegal in Belgium.\r\n\r\nWe spent a quite night here. no problems at all but no facilities. parking lots under huge trees next to the sports club. you can walk through the big park or play soccer on the field. ","location":{"latitude":50.92866539526335,"longitude":4.042204454576614},"category":{"name":"Wild Camping"}},{"id":98673,"name":"Pays de Herve Information","date_verified":"2019-06-19T00:00:00.000Z","description":"Tourist information in Herve with Restaurant and Souvenir shop. It's next to the cycle route between Lüttich and Aachen (Ligne 38, Eurovelo 3) Toilets, Water, Picnic area and Showers. Toilets and warm Showers are only open during opening hours. April tru September Mo-Fr 9-18 Uhr and Weekend 10-18 Uhr\r\nOctober tru March Mo-Fr 9-17 Uhr and Weekend 10-17\r\nShowers are free just 5€ Caution and your Passport","location":{"latitude":50.64248645142448,"longitude":5.791055116546397},"category":{"name":"Showers"}},{"id":100191,"name":"Tour \u0026 Taxi","date_verified":"2019-07-06T00:00:00.000Z","description":"Wide open space in middle of city. The guard even provided us with free electricity.","location":{"latitude":50.86696774085829,"longitude":4.348583220735164},"category":{"name":"Wild Camping"}},{"id":102704,"name":"Just a field","date_verified":"2019-08-01T00:00:00.000Z","description":"camped here at a raw field next to some barn which seems to be unoccupied. at the end of an dirt road. did that by motorbike and tent. for tent this place is good so far, probably also for 4x4 rig, big rigs may have problems with the narrow street and probably attract too much attention","location":{"latitude":50.93136241,"longitude":4.10532677},"category":{"name":"Wild Camping"}},{"id":102963,"name":"Klein Strand","date_verified":"2021-06-01T00:00:00.000Z","description":"A big campground for all vehicles. August was 25€ per tent. With a lake, kids pool, Bar, Restaurant, gambling hall.\r\nClose to highway (sound).","location":{"latitude":51.182856434072534,"longitude":3.103889068591505},"category":{"name":"Established Campground"}},{"id":103065,"name":"Biolin woods","date_verified":"2019-08-04T00:00:00.000Z","description":"a place where it is  allowed to stay for  one night. only tents, place for parking your car.  firepit, bbq, and pick nick .\r\nquiet road next to it. ","location":{"latitude":50.034629935883,"longitude":5.251117290753058},"category":{"name":"Established Campground"}},{"id":103331,"name":"Picnic Area","date_verified":"2019-08-04T00:00:00.000Z","description":"picnic area and barbecue - national forest of fesches. parking place where you can BBQ for free. lots of parking space and picknick tables.\r\n","location":{"latitude":50.16803397503415,"longitude":5.174529100756506},"category":{"name":"Tourist Attraction"}},{"id":103704,"name":"Citadel de Namur Car Park","date_verified":"2019-08-07T00:00:00.000Z","description":"No parking fees, up on the hill next to the citadel you get a great view of the city. Going up the hill to get here is steep and has a bumpy brick road.","location":{"latitude":50.46059599,"longitude":4.85768204},"category":{"name":"Tourist Attraction"}},{"id":103820,"name":"Parking De Schalk","date_verified":"2019-08-09T00:00:00.000Z","description":"big parking lot which is used frequently by locals with RV's\r\nno problem to stay overnight. no amenities","location":{"latitude":51.06032,"longitude":4.34576},"category":{"name":"Informal Campsite"}},{"id":105338,"name":"Camping YPRA","date_verified":"2023-04-17T00:00:00.000Z","description":"€20 per night for two people with a 4WD and roof top rent including power. Beautiful green grass on the pitches. Highly recommended. This is a large camp site with permanent vans but also loads of space for camper vans and camping areas. It has great facilities and the most friendly owners.","location":{"latitude":50.78472519784898,"longitude":2.819384640587583},"category":{"name":"Established Campground"}},{"id":106702,"name":"City of Tournai","date_verified":"2019-08-28T00:00:00.000Z","description":"Parking for motorhomes, in the center of the city. Parking, water and sanitation dump station are free.","location":{"latitude":50.60390342031661,"longitude":3.381105680021812},"category":{"name":"Established Campground"}},{"id":109298,"name":"Uri Dam Free Camp","date_verified":"2020-07-14T08:47:44.000Z","description":"Big parking lot next to the dam special and free for campervans. There start a small hike (30min) and a long hike (4h). Not so much sun because of the “valley”. Lot of rats. Ok for one night.","location":{"latitude":50.141175,"longitude":5.670949},"category":{"name":"Informal Campsite"}},{"id":110784,"name":"Island Spot","date_verified":"2023-08-07T00:00:00.000Z","description":"Spot at the end of the road on an island. Beautiful view at the river. We had a great silent night with friends here. ","location":{"latitude":51.14699218,"longitude":3.28982711},"category":{"name":"Wild Camping"}},{"id":120331,"name":"aire de bivouac des traqueurs","date_verified":"2021-05-12T00:00:00.000Z","description":"fire pit\r\ncamping ground\r\nno water \r\nsometimes dirty,  chairs ect\r\ngood for bbq","location":{"latitude":50.1149,"longitude":5.3747},"category":{"name":"Wild Camping"}},{"id":125615,"name":"Wepion","date_verified":"2023-06-29T00:00:00.000Z","description":"quiet parking with view of the meuse and seen by no one except a few residents. No amenities. close to all shops, even on foot. Safe place.\r\n---\r\nparking au calme avec vue sur meuse et vu de personne sauf de quelques riverains. Aucunes commodités. à proximité de tous les commerces même à pied. Endroit sûr.","location":{"latitude":50.40362,"longitude":4.88151},"category":{"name":"Wild Camping"}},{"id":129796,"name":"Bicycle camping / free camping for cyclists","date_verified":"2020-04-16T00:00:00.000Z","description":"Radfahrer auf Reisen mit Zelt und APE Camper für eine Übernachtung willkommen. Bitte vor Ankunft telefonisch anmelden unter Whatsapp 0049 15775843475. Der Platz ist begrenzt.\r\nCyclists and APE Campers welcome for overnight stays when traveling with a tent. Please register by phone on arrival at Whatsapp 0049 15775843475. Space is limited.","location":{"latitude":50.68452,"longitude":5.96079},"category":{"name":"Wild Camping"}},{"id":130226,"name":"Beautiful spot at the coastline","date_verified":"2020-07-31T23:34:16.340Z","description":"Great place to stay before shipping out of Zeebrugge. We stayed here for a couple of days and had no problems. There is a water tap on one of the buildings we drank it without any problems. Small shop and butcher only a short walk. It's a very nice and clean town with  friendly locals.","location":{"latitude":51.296166666666664,"longitude":3.0737833333333335},"category":{"name":"Wild Camping"}},{"id":131415,"name":"camper plaats de wissen","date_verified":"2019-08-31T00:00:00.000Z","description":"parking lot style camper spot with some grass around it. \r\n","location":{"latitude":51.02366091683507,"longitude":5.749529097229242},"category":{"name":"Wild Camping"}},{"id":132719,"name":"Pierard car rescue","date_verified":"2020-07-11T00:00:00.000Z","description":"hello, this is my personal garage. I am also an overlander and therefore if you need a helping hand I can make my garage available with all the tools and order parts for you.\r\nmy number phone 0032483051732\r\nmy email lionelcollette.lc@gmail.com","location":{"latitude":50.21057742,"longitude":5.32881784},"category":{"name":"Mechanic and Parts"}},{"id":132743,"name":"Pierard car rescue","date_verified":"2020-07-11T00:00:00.000Z","description":"hello, this is my garage is my warehouse. I am also overlander and if you need to store a vehicle in case of a problem you can store a vehicle here safely.\r\nmy phone 0032483051732\r\nmy email lionelcollette.lc@gmail.com","location":{"latitude":50.2105449,"longitude":5.32892295},"category":{"name":"Vehicle Storage"}},{"id":132744,"name":"pierard car rescue","date_verified":"2020-07-11T00:00:00.000Z","description":"hello, this is my garage and warehouse. I am also overlander and if you need to take a shower or fill up with water or anything you can contact me with pleasure. I will be very happy to help you.\r\nmy phone 0032483051732\r\nmy email lionelcollette.lc@gmail.com","location":{"latitude":50.21056881,"longitude":5.32889423},"category":{"name":"Showers"}},{"id":133423,"name":"Balthasard ","date_verified":"2020-07-22T00:00:00.000Z","description":"Wonderful place to have breakfast, tea, etc. Waffles, bowls, milkshakes etc.","location":{"latitude":51.20836746883691,"longitude":3.221690095964094},"category":{"name":"Restaurant"}},{"id":133739,"name":"Vallee de la hoëgne","date_verified":"2021-08-23T00:00:00.000Z","description":"Start of a nice and easy walk. You can spend the night here. We did in our van. Calm at night. By the river. ","location":{"latitude":50.5076301377737,"longitude":5.96043085679967},"category":{"name":"Wild Camping"}},{"id":134082,"name":"Wenduine, de Molen","date_verified":"2020-08-01T00:00:00.000Z","description":"I was here with my tent 4 days..  I could leave my tent behind, without worrying.  It is an open spot, still it's in between trees. Not 1 person passed me these 4 days.  Because across this spot and street is a beautiful park with a path to very nice, quiet beach area. Quite spot next to the beach, public transport for exploring even more beauty at the Belgian Coastline","location":{"latitude":51.29610411822796,"longitude":3.0737979523837566},"category":{"name":"Wild Camping"}},{"id":134344,"name":"Next to the beach","date_verified":"2023-12-31T00:00:00.000Z","description":"Great spot for a night. It's really quiet.  in between parking spot and the Beach at Lombardsijde (Middelkerke) I was here 2 nights alone. After my first night, I did all my stuff back in my backpack, then hidden this in the buches so I could go exploring not carrying my stuff. when I came back during the evening nothing changed. So I set my tent up again. You can hear the sea at night, which is so relaxing.  Nobody knew I ever was here. Could stay longer, but wanted to explore next town at the Belgian coast. ","location":{"latitude":51.16736579686403,"longitude":2.7648534066975117},"category":{"name":"Wild Camping"}},{"id":135160,"name":"Near river Amblève","date_verified":"2023-08-26T00:00:00.000Z","description":"Near the town of Cheneux/ Manceau, nice little place near the river. You can camp under the railway bridge when bad weather. (no trains at night, few during day) Very quiet. You can see the railroad bridge from the road, then take a small country road for about 200 meters.","location":{"latitude":50.40091841015965,"longitude":5.821138126775622},"category":{"name":"Wild Camping"}},{"id":135491,"name":"Overlanders bivouac","date_verified":"2021-07-29T00:00:00.000Z","description":"MODERATOR NOTE: Description provided by owner or manager. \r\n\r\nPrivate ground/garden accepting one or two 4x4 cars and trucks for free overnight. Camp fire location. Dry toilet.Pets and children welcome. Electricity provided 5€\\24h. Please inform if planing an overnight by mail: landrover88@mac.com, before arrival. ","location":{"latitude":49.83533010154612,"longitude":5.457657737289895},"category":{"name":"Established Campground"}},{"id":139557,"name":"Petrem","date_verified":"2020-09-20T00:00:00.000Z","description":"Parking Rugby stadium. very quiet. Beautiful location.\r\n......\r\n\r\nParking Rugby stadium zeer stil . Prachtige lokatie","location":{"latitude":50.72673522401601,"longitude":4.925600253045559},"category":{"name":"Informal Campsite"}},{"id":141271,"name":"Bivak Grootbos Genoelselderen","date_verified":"2022-07-18T00:00:00.000Z","description":"Wooden platforms with a capacity of max 4 tents. Has a biotoilet, no water. Its a campingspot (bivak) where you can stay legal for a few nights (tents only). Located into the woods and nearby a wine castle.","location":{"latitude":50.80603,"longitude":5.54983},"category":{"name":"Established Campground"}},{"id":141275,"name":"Bivak Grootbos Genoelselderen","date_verified":"2020-12-28T00:00:00.000Z","description":"in forest. near wine castle. free, legal camping spot (bivak).","location":{"latitude":50.80603,"longitude":5.54983},"category":{"name":"Established Campground"}},{"id":142310,"name":"Chateau Weiland","date_verified":"2021-01-24T00:00:00.000Z","description":"Accessibility:\r\nThis camp is only accessible by bike. In the street next to the castle, there are parking spaces specially for 'Reis naar de boer'.\r\nThe avenue in which the meadow is located is historically protected and therefore motorized vehicles are prohibited. You can park your car in the adjacent Kasteelstraat on the reserved spaces.\r\n\r\nIn the heart of Zulte (Olsene) you can stay on the pasture of Didier and Patrick. They give you a warm welcome to Chateau Meadow, a meadow near the beautiful castle of Olsene.\r\nIn the extension of the castle you can find a historic lane where 'Chateau Weiland' is located.\r\n\r\nFor activities in the area you can take a look at the website of Tourism Leiestreek!\r\n\r\nAccessibility:\r\n\r\nThis camp is only accessible by bike. In the street next to the castle, there are parking spaces specially for 'Reis naar de boer'.\r\n\r\nThe avenue in which the meadow is located is historically protected and therefore motorized vehicles are prohibited. You can park your car in the adjacent Kasteelstraat on the reserved spaces.","location":{"latitude":50.94311,"longitude":3.47172},"category":{"name":"Established Campground"}},{"id":142312,"name":"De vallei hoeve","date_verified":"2021-01-24T00:00:00.000Z","description":"Ghislain and his family are pleased to welcome you to their beautiful farm in the heart of Lievegem. Located on the edge of the Old Bald Valley, the meadow is the ideal starting point for walking or cycling tours. Discover the region and enjoy the peace and quiet on the meadow.\r\n\r\nInterested in the farm itself? Be sure to visit Ghislain and he will gladly take you on a tour of his yard and beautiful vegetable garden!\r\n\r\nFor activities in the area check out the website of Tourism Meetjesland!\r\n\r\nAccessibility\r\n\r\nThis site is also accessible for campers and caravans. WHEN BOOKING, PLEASE SEND A SEPARATE EMAIL WITH THE NOTIFICATION OF THE CAMPER OR CARAVAN VIA info@reisnaardeboer.be.\r\n\r\nCars can come to the meadow and park nearby. We ask, however, for the sake of safety to ensure that the roads always remain clear!","location":{"latitude":51.08494,"longitude":3.60125},"category":{"name":"Established Campground"}},{"id":143803,"name":"Blegny Mine Parking","date_verified":"2020-12-26T00:00:00.000Z","description":"Parking lot of Blegny Mine. Quiet but no facilities, just two little trash containers. With the pandemic, the Blegny Mine is closed. Nice morning view.","location":{"latitude":50.68412,"longitude":5.72312},"category":{"name":"Informal Campsite"}},{"id":145394,"name":"Berismenil","date_verified":"2023-10-23T00:00:00.000Z","description":"Magnificent secluded location with magnificent 360 ° view\r\nA starting point for hikes\r\nNo protection in high winds\r\nSuper calm ","location":{"latitude":50.17186199319565,"longitude":5.646546520298018},"category":{"name":"Wild Camping"}},{"id":147243,"name":"Spring water ‘Bronneke’","date_verified":"2021-04-26T00:00:00.000Z","description":"Water tap to fill up water. Local farmers also use this tap. Forbidden to use at nighttime between 22h00 till 7h00. Drinkable after cooking.","location":{"latitude":50.8324,"longitude":4.1435},"category":{"name":"Water"}},{"id":147361,"name":"Herfurth Logistics","date_verified":"2021-04-27T00:00:00.000Z","description":"Herfurth Logistics is a shipping agent that can help you get your container out of Antwerp port. I guess they can also send it for you but I only worked with them for retrieving my truck. ","location":{"latitude":51.22661703,"longitude":4.41593278},"category":{"name":"Vehicle Shipping"}},{"id":150529,"name":"Baalse Hei","date_verified":"2021-05-18T00:00:00.000Z","description":"Campsite where you can rent a tracking cabin, several sizes tents and several sizes trailers. Free wifi. Large cafeteria/reastaurant, swimming pond.","location":{"latitude":51.35763,"longitude":4.95914},"category":{"name":"Established Campground"}},{"id":150530,"name":"Baalse Hei","date_verified":"2021-05-18T00:00:00.000Z","description":"Campsite where you can rent a tracking cabin, several sizes tents and several sizes trailers. Free wifi. Large cafeteria/reastaurant, swimming pond.","location":{"latitude":51.35763,"longitude":4.95914},"category":{"name":"Established Campground"}},{"id":150534,"name":"Lilse Bergen","date_verified":"2021-05-18T00:00:00.000Z","description":"Large scale camping site, with tracking cabins, tents, safari tents, caravans. Large swimming pond, restaurant, small store, laundromat.","location":{"latitude":51.28109,"longitude":4.84318},"category":{"name":"Established Campground"}},{"id":150663,"name":"Refugee ex-campsite","date_verified":"2021-05-15T00:00:00.000Z","description":"There used to be a big campsite that now serves as refugee shelter. I dropped by because the website is still online. Could not stay on site, but the very friendly guard/housekeeper/caretaker let me camp on the parking space outside and use the toilet and kitchen. Perfect for the night if you don't want to wander off into the woods anymore.","location":{"latitude":50.50770901992934,"longitude":5.918763466180388},"category":{"name":"Informal Campsite"}},{"id":150751,"name":"Near Meuse River","date_verified":"2021-03-28T00:00:00.000Z","description":"Space for three campers with a view of the fields, not far from the Meuse River\r\n......\r\nplaats voor drie camper met zicht op de velden, niet ver van de Maas.","location":{"latitude":50.99233646,"longitude":5.74912887},"category":{"name":"Wild Camping"}},{"id":154650,"name":"Ramonsshowk 25","date_verified":"2021-07-17T00:00:00.000Z","description":"Informal campground run by people with a great heart for overlanders, camptrucks and 4x4’s","location":{"latitude":51.191294328357586,"longitude":3.887103237215324},"category":{"name":"Informal Campsite"}},{"id":154680,"name":"Forest","date_verified":"2022-08-16T00:00:00.000Z","description":"Parking lot in the forest. Allowed to stay for the night.","location":{"latitude":50.36697953944128,"longitude":5.891918689018015},"category":{"name":"Wild Camping"}},{"id":154795,"name":"Camp Bonanza","date_verified":"2021-07-18T00:00:00.000Z","description":"Extensive campground with a variety of sites from big rig to tent. Paid 27 euros for a two people with a caravan (truck camper). Hookups and wifi available for additional cost. Clean toilet and shower facilities, showers additional cost of 2 euros. Most sites close together without any landscaping separation. We camped in the field without hookups. One mile walk to the beach.","location":{"latitude":51.31005463,"longitude":3.15496478},"category":{"name":"Established Campground"}},{"id":154801,"name":"Camping Groenpark","date_verified":"2021-07-20T00:00:00.000Z","description":"Pleasant campground 30 mins from Gent on the way to Antwerp. Grassy spots, hookups available, clean shower and toilet facilities. Paid 27 Euros for two people with camper truck. Wifi available and excellent service on Google Fi. Short walk to lake or groceries.","location":{"latitude":51.05232041,"longitude":3.98080881},"category":{"name":"Established Campground"}},{"id":154961,"name":"Camping Houtum","date_verified":"2021-07-21T00:00:00.000Z","description":"Classic Belgium style small campground. Grassy field spaces with electric and water hookups available. Free Wifi, clean bathroom building with showers for a fee. Cafe on site. Contacted them through their website in advance to request a booking, very responsive. Paid 17 euro for a camper site with two people.","location":{"latitude":51.23202844,"longitude":4.97999834},"category":{"name":"Established Campground"}},{"id":155331,"name":"Street parking","date_verified":"2022-01-27T00:00:00.000Z","description":"In front of Grand Hotel Casselbergh, we have a small car and we parked here for one night. There’s a lot of people passing by since we’re just next to the center place. But good for one night","location":{"latitude":51.209370782646545,"longitude":3.228511875498321},"category":{"name":"Wild Camping"}},{"id":155815,"name":"Parc d’amée","date_verified":"2021-08-01T00:00:00.000Z","description":"Very quiet place on the road to your final destination.\r\nNice park in front, great for kids and dogs.","location":{"latitude":50.440040525512515,"longitude":4.8647941005493855},"category":{"name":"Wild Camping"}},{"id":158171,"name":"canal Gent-Terneuzen.","date_verified":"2019-06-06T00:00:00.000Z","description":"Several simple spots along the west side. Boats, barges and several large industrial operations. Smell sometimes. Not very quiet, but funny. ","location":{"latitude":51.182463867637495,"longitude":3.7976450286840997},"category":{"name":"Wild Camping"}},{"id":158180,"name":"l'Hermitage de Wachet. ","date_verified":"2023-08-19T00:00:00.000Z","description":"Serene place in the woods. last 100mtr dirt road. small well-kept chapel. Please don't go all of you at the same time. It's too beautiful to overrun.","location":{"latitude":49.61169282444716,"longitude":5.6696016993426435},"category":{"name":"Wild Camping"}},{"id":158549,"name":"Sahara Parking","date_verified":"2023-09-25T00:00:00.000Z","description":"A quiet parking lot with a gravel surface, in between the forest and the canal. In the weekend over 6 campers camped here, so it’s probably okay to do so. Even on weekdays, it's packed.\r\n\r\nThe parking is the start for several hikes in the Lommelse Sahara.","location":{"latitude":51.253124186281184,"longitude":5.309292533681268},"category":{"name":"Wild Camping"}},{"id":159186,"name":"Koksijde Airfield camper and van","date_verified":"2022-09-19T00:00:00.000Z","description":"New and official camper and van parking spot. No anemities. Just next to the Koksijde military airfield with great view. Very calm at night, only bikers during the day.  Fantastic view. 12 hours camping max","location":{"latitude":51.10369,"longitude":2.66202},"category":{"name":"Established Campground"}},{"id":159664,"name":"LPG Techniek Van Meenen","date_verified":"2021-09-20T00:00:00.000Z","description":"A great store that has everything LPG related. Fair prices and excellent knowhow.","location":{"latitude":51.19335,"longitude":3.57234},"category":{"name":"Mechanic and Parts"}},{"id":159856,"name":"Dead-end agricultural road","date_verified":"2021-09-18T00:00:00.000Z","description":"Dead-end road for smaller vans only. Hardly impossible to turn with larger camper but smaller vans will be fine. In the midst of agriculture fields and next to military airstrip. 15 minutes walk to center of Veurne.\r\nExcept for an occasional dog owner you will be all alone here.","location":{"latitude":51.08568,"longitude":2.66201},"category":{"name":"Wild Camping"}},{"id":162418,"name":"Parking Ecluse","date_verified":"2022-10-26T00:00:00.000Z","description":"Quiet place for parking overnight, only vehicles, no commodities.","location":{"latitude":50.59315049443954,"longitude":4.252284694453934},"category":{"name":"Short-term Parking"}},{"id":162419,"name":"Parking Saint-Hubert","date_verified":"2021-11-01T00:00:00.000Z","description":"Sanitary dump station - Water - Three parking spots - Free","location":{"latitude":50.02717349138011,"longitude":5.381039046567709},"category":{"name":"Sanitation Dump Station"}},{"id":162674,"name":"Raeren","date_verified":"2021-11-03T00:00:00.000Z","description":"Quiet spot in the woods to park, no facilities. ","location":{"latitude":50.63860376187462,"longitude":6.125227566936639},"category":{"name":"Short-term Parking"}},{"id":162675,"name":"Kelmis","date_verified":"2022-05-01T00:00:00.000Z","description":"Overnight parking allowed - Electricity - Water - Sanitation dump station","location":{"latitude":50.71580568945542,"longitude":6.009811053387212},"category":{"name":"Sanitation Dump Station"}},{"id":166317,"name":"Merkemveld Forest","date_verified":"2022-01-18T00:00:00.000Z","description":"Lots of places for informal camping, most often used by scouts etc.","location":{"latitude":51.11602,"longitude":3.1675},"category":{"name":"Informal Campsite"}},{"id":166653,"name":"Sportpark Terwilgen","date_verified":"2023-06-26T00:00:00.000Z","description":"Official overnight parking without any services. Pizza place just across the street. \r\nBrussels 10 km. away.","location":{"latitude":50.92783,"longitude":4.36586},"category":{"name":"Wild Camping"}},{"id":174916,"name":"Paddenbroek camperplaces","date_verified":"2022-04-18T00:00:00.000Z","description":"The Town of Gooik provides 3 places for campers to spent the night. The stay is legal and is for free. Also you don't need a reservation. The toilets in the cultural center can be used during the opening hours of the Cycling and Walking Café.\r\n\r\nStay is limited to a maximum of 24 hours.","location":{"latitude":50.78628,"longitude":4.10923},"category":{"name":"Established Campground"}},{"id":176143,"name":"Camping La prahay","date_verified":"2022-05-14T00:00:00.000Z","description":"Nice quiet camping along the semois with nice owners.\r\nGood sanitation \r\nWifi\r\nBar/restaurant\r\n","location":{"latitude":49.81101444741052,"longitude":5.012538260191634},"category":{"name":"Established Campground"}},{"id":177492,"name":"Aalter Motorhome Stop","date_verified":"2022-05-27T00:00:00.000Z","description":"Free Motorhome stop in the small town of Aalter. Water fill-up available here for €1. Cafe across the street is open from 08:30 to 20:00 with great coffee and cakes, as well as a very nice loo. Great 4G signal, good enough for video conferencing.","location":{"latitude":51.09961089476826,"longitude":3.3710146041759397},"category":{"name":"Established Campground"}},{"id":178030,"name":"Ancienne carrière de Resteigne","date_verified":"2021-02-19T00:00:00.000Z","description":"Along the river Lesse and near  the Forest, quiet spot for the night. No commodities","location":{"latitude":50.09043176197455,"longitude":5.176773117860012},"category":{"name":"Wild Camping"}},{"id":182027,"name":"outdoor camping barvaux","date_verified":"2022-06-26T00:00:00.000Z","description":"nice small camping with focus on outdoor actifity","location":{"latitude":50.365551807917655,"longitude":5.5068697314709425},"category":{"name":"Established Campground"}},{"id":182145,"name":"bivakplaats solt","date_verified":"2019-08-10T00:00:00.000Z","description":"a small place in the forrest for a couple off tents or a small vehicle, there is a composting toilet, water pump (the water is not drinkable), a bench, a small platform, a fireplace, it is verry quiet. there are also hooks in poles for 2 hammocks.","location":{"latitude":51.09997214134298,"longitude":5.653318195466729},"category":{"name":"Wild Camping"}},{"id":183044,"name":"Forêt outside liège ","date_verified":"2020-08-02T00:00:00.000Z","description":"Place quiet to have rest.\r\nNot for ten cause of lack of space and rocks","location":{"latitude":50.55795474913954,"longitude":5.551105393101975},"category":{"name":"Wild Camping"}},{"id":183302,"name":"camping Groeneverde","date_verified":"2023-08-18T00:00:00.000Z","description":"Small and nice campground with grassy areas lots of trees around, kids area, rustic but clean sanitaries, bar.\r\nFriendly owners. You can use bikes for free.\r\nCalm place, close to Gand city. \r\n\r\n30€/ night for 2 adults, 2 kids, tent, car and dog. Electricity, wifi and hot water included.\r\nKids under 12 years free.\r\n","location":{"latitude":51.004748333333325,"longitude":3.5733066666666664},"category":{"name":"Established Campground"}},{"id":183523,"name":"camping des lacs","date_verified":"2022-07-14T00:00:00.000Z","description":"Nice camping with lot of shadow, near to the main road but quiet at night. Small bar/restaurant. \r\nPets friendly. Small but cleans sanitaries.  \r\nPaid 45€ / night for tent, 2 adults, 2 kids, 1 dog and electricity.\r\n1km from a beach. Free small train around lake. \r\n\r\n","location":{"latitude":50.19523666666667,"longitude":4.407798333333333},"category":{"name":"Established Campground"}},{"id":183706,"name":"Natura Parc","date_verified":"2022-07-15T00:00:00.000Z","description":"Super parc accrobranche à côté de la plage. 27€/pers pour 6 parcours environ 3h.\r\n\r\nNice adventure park next to the beach. 27€/pax for 6 trips in trees, during more and less 3 hours. ","location":{"latitude":50.18798333333334,"longitude":4.375678333333334},"category":{"name":"Tourist Attraction"}},{"id":184160,"name":"Lille Fort","date_verified":"2022-07-19T00:00:00.000Z","description":"parkinglot on the border of the river De Schelde. In an old fort of Napoleon. few bars/restaurants in the village. you can take the riverbus to Doel and Antwerp.\r\nSome backround noise of the industrie, you are in the middle of Port of Antwerp. you can pitch a tent but wildcamping is not legal in Belgium. ","location":{"latitude":51.30427795,"longitude":4.28839069},"category":{"name":"Wild Camping"}},{"id":194639,"name":"Canal Nimy-Blaton-Peronnes","date_verified":"2022-10-06T00:00:00.000Z","description":"Next to the canal where ships can moor you can park your camper. ","location":{"latitude":50.523349307524526,"longitude":3.5282848589155154},"category":{"name":"Informal Campsite"}},{"id":195573,"name":"Barrage du Ri de Rome","date_verified":"2022-10-15T00:00:00.000Z","description":"Small car park next to the Lac du Ri de Rome water treatment plant.\r\nVery quiet, almost no cars pass by and there are rubbish bins available.","location":{"latitude":50.024456,"longitude":4.5334411},"category":{"name":"Wild Camping"}},{"id":197321,"name":"bastogne ","date_verified":"2022-10-31T00:00:00.000Z","description":"parking near the war museum. entrance 5 euro. a lot of space,  good for 24 hour. visit the museum go for a hike,  sleep. a walk from the center. start point of 2 hike trails.\r\n\r\n","location":{"latitude":50.0115588702465,"longitude":5.740530053807296},"category":{"name":"Informal Campsite"}},{"id":199766,"name":"Belgium Zutendaal, campsite","date_verified":"2022-10-25T00:00:00.000Z","description":"Great hospitality. Camp in a small field between horses. Quiet. Clean Wc and shower. Good price. 10 minutes from the motorway and supermarket, friteur and cafes.","location":{"latitude":50.95890100258556,"longitude":5.569048117171896},"category":{"name":"Established Campground"}},{"id":201202,"name":"leuze","date_verified":"2022-12-07T00:00:00.000Z","description":"LPG station where you can fill bottles of all types, staff not very friendly, €27 for 13 kgs, the attendant fills the bottle himself, you have to take it out of the camper\r\n\r\n\r\nstation lpg où l'on peut remplir les bouteilles de tous types,  personnel pas trés sympa, 27€ pour 13 kgs, le préposé remplis la bouteille lui meme, il faut la sortir du camping car","location":{"latitude":50.601659626699984,"longitude":3.639183221384883},"category":{"name":"Propane"}},{"id":207102,"name":"Overland motorcycle shop","date_verified":"2023-02-01T00:00:00.000Z","description":"MODERATOR NOTE: Description provided by owner or manager.\r\n\r\nAll-Road Moto is strong in minor repairs because of our well-equipped and open workshop. We can provide spare parts for all brands on demand and do tire changes as well. Still a real old school garage! Allroadmoto grew out of an extreme passion for traveling on paved \u0026 unpaved roads. If the customer wishes, we can prepare their bike (any brand) completely in-house.\r\n\r\nWe receive customers, share stories, try on products in a relaxed atmosphere. Just come by to have a free coffee or a soft drink and meet fellow travellers!","location":{"latitude":50.97194,"longitude":4.14998},"category":{"name":"Mechanic and Parts"}},{"id":213599,"name":"(i)Overlander's house","date_verified":"2023-03-21T00:00:00.000Z","description":"MODERATOR NOTE: Description provided by owner or manager.\r\n\r\nBeing overlanders ourselves, we welcome travellers, including hikers and bicyclists (see https://welcometomygarden.org), in our garden and house (for free).\r\n\r\nThere is place for a few small tents in the garden overlooking the valley, overlander vehicles and big rigs (in an adjacent, rougher terrain). We have WiFi, water and a bathroom for guests.\r\n\r\nIt's not a wild camping site: please do contact us before coming over at isad@choam.com or +32 80 319 913.","location":{"latitude":50.31152,"longitude":5.81479},"category":{"name":"Informal Campsite"}},{"id":215251,"name":"Oudenaarde - Belgium - Flandern ","date_verified":"2023-04-02T00:00:00.000Z","description":"Oudenaarde - Parking area at the river - 10 Minutes to centre - 10 places for big Riggs - Quiet at night ","location":{"latitude":50.84938374811526,"longitude":3.6166884852745396},"category":{"name":"Wild Camping"}},{"id":215476,"name":"Overnight parking Bredene","date_verified":"2023-04-06T00:00:00.000Z","description":"Large parking lot 7PM until 10AM free of charge - no prohibition sign for campers - we had space at the beginning of April and no problem with the overnight stop\r\n\r\nGroßer Parkplatz 19-10 Uhr kostenlos - kein Verbotsschild für Camper - wir hatten Anfang April Platz und kein Problem beim overnight stop","location":{"latitude":51.25137610788381,"longitude":2.974129496788666},"category":{"name":"Informal Campsite"}},{"id":215480,"name":"Overnight parking Gent","date_verified":"2023-04-06T00:00:00.000Z","description":"Overnight parking Gent\r\nBig parking area at a Event centre closed by a barrier.\r\n2 € per day.\r\n4 km to the city. ","location":{"latitude":51.07390149131387,"longitude":3.7217174343507082},"category":{"name":"Informal Campsite"}},{"id":221657,"name":"Pondside Camping","date_verified":"2023-05-22T00:00:00.000Z","description":"Awesome little spot. It’s on private property but there are several little individual spots for small campers. Nice view and a peaceful quiet night. About as good as you can get for a “wild” camp around these parts. Of course no services. ","location":{"latitude":51.28203582546455,"longitude":3.270377788026886},"category":{"name":"Wild Camping"}},{"id":225255,"name":"76 Bus","date_verified":"2023-06-17T00:00:00.000Z","description":"Small concrete parking area by roundabout. Quiet with a little shade.\r\nYou can catch a 76 bus into Ghent, pay with card.\r\nLarge enough for a big rig (ours is 8m expedition truck) or 2 motorhomes. Don't leave any rubbish to spoil this nice spot! Stayed one night.","location":{"latitude":50.98283166666667,"longitude":3.646163333333333},"category":{"name":"Wild Camping"}},{"id":225688,"name":"Chatelet","date_verified":"2023-06-20T00:00:00.000Z","description":"Car park near hospital and ring road. OK for a night.","location":{"latitude":50.39929,"longitude":4.520021666666667},"category":{"name":"Wild Camping"}},{"id":225765,"name":"Paddenbroek Campervan parking","date_verified":"2022-04-18T00:00:00.000Z","description":"Right next to the Paddenbroek cultural center are three legal parkingspots for campers. You are allowed to stay here for free for 24h. During the opening times of the center you can use the toilette. There is a nice bar with terrass at Paddenbroek. And numerous walking and biking routes you can do. You can find more information on: https://www.gooik.be/vrije-tijd/toerisme/plattelandscentrum-paddenbroek","location":{"latitude":50.78597305,"longitude":4.10927767},"category":{"name":"Established Campground"}},{"id":226209,"name":"Swarte","date_verified":"2023-06-21T00:00:00.000Z","description":"Public parking with dry toilets. A lot of room, no sign “no overnight”.\r\nTram in front of the parking. \r\nBeach in front of the spot.","location":{"latitude":51.28489490011892,"longitude":3.05062507607424},"category":{"name":"Wild Camping"}},{"id":226331,"name":"Tro Do Way Campsite","date_verified":"2022-10-03T00:00:00.000Z","description":"Beautiful campsite along the creek. ~30 places.\r\nLocated in the valley, surrounded by forest.\r\nPhone reception is limited, but wifi is available","location":{"latitude":50.09872751985991,"longitude":5.673806747025553},"category":{"name":"Established Campground"}},{"id":226520,"name":"Les Brullins","date_verified":"2023-06-25T00:00:00.000Z","description":"Communal campsite of static homes but 4 grassy  pitches for visiting campers. Local bar/restaurant within walking distance. ","location":{"latitude":50.091782212257385,"longitude":5.171597292646766},"category":{"name":"Established Campground"}},{"id":226763,"name":"Aire de Motorhomes, Tournai","date_verified":"2023-06-27T00:00:00.000Z","description":"12 paved, flat marked pitches for motorhomes run by City. Parking from 12noon to 12 following day. 10€ includes electricity and water. Also disposal of grey water and chemical waste. Access is via a scanned code and email. Quick and easy.\r\nWalking distance to Cathedral. Great initiative by city.","location":{"latitude":50.60571759939194,"longitude":3.3786191046237946},"category":{"name":"Established Campground"}},{"id":226973,"name":"moerbeke","date_verified":"2023-05-28T00:00:00.000Z","description":"Nice motorhome for max 24 hours. parking lot for starting hiking trails\r\n\r\nFijne camperplaats voor max 24 uur. parkeerplaats voor start wandelroutes","location":{"latitude":51.17852618,"longitude":3.91513251},"category":{"name":"Wild Camping"}},{"id":231455,"name":"Auberge de jeunesse de Tournai ","date_verified":"2023-07-15T00:00:00.000Z","description":"Price more than correct 27euros for dormitory and breakfast and well located\r\n---\r\nBonne acceuil. Prix plus que correct 27euros pour dortoir et petit déjeuner et bien situé ","location":{"latitude":50.603127823582135,"longitude":3.3850647083867376},"category":{"name":"Hostel"}},{"id":235932,"name":"camping de la cascade","date_verified":"2023-08-10T00:00:00.000Z","description":"super camping next to a river. well kept shower/toilet/cleaning area. public fire pit and inside chill room with bar. €22-€35 high season, elctricity xtra.\r\nworth the money for tired muscles.","location":{"latitude":50.39141168,"longitude":5.87895669},"category":{"name":"Established Campground"}},{"id":236936,"name":"Overnight camp","date_verified":"2023-06-06T00:00:00.000Z","description":"Over night camp outside Brussels. In the woods. Lots of birds ","location":{"latitude":50.80000370279993,"longitude":4.662771848966053},"category":{"name":"Wild Camping"}},{"id":238351,"name":"Bivakzone Galgenhof (Free)","date_verified":"2022-08-23T00:00:00.000Z","description":"Bikes only!!\r\n\r\nWhat is a bivac zone?\r\n \r\nA recognized, legal place in nature where you can spend the night briefly, without luxury and discreetly in your own tent.  Intended for those who travel on foot or by bicycle, not by car.  Start from the basic idea that you can only use a piece of land where you can legally pitch your trekking tent for one or two nights.  Any comfort facilities present, such as a water point, shelter or fire ring are included as an extra but no guarantee.  You stay there according to the 'leave no trace' principle and without disturbing the natural environment.\r\n \r\n What isn't it?\r\nWe dQe \r\nA free campsite that you can reach by car.  You can't go there in a group either.  For comfort facilities and a feeling of home, it is better to move to a campsite, where your waste will be cleaned up after your stay.  In a bivouac zone you bear your own responsibility.  Just as you leave the bivouac zone after a night's stay, it is also offered to the bivouac who comes after you.","location":{"latitude":51.18987154220373,"longitude":3.5456348117473957},"category":{"name":"Established Campground"}},{"id":238652,"name":"Parking Spot Next to hiking Route","date_verified":"2023-08-27T00:00:00.000Z","description":"Big parking spot, next to a hiking route at the Forest. Here is an area for dogs to run free.\r\nIt wasn‘t so quiet because there is a soccer field, but at Night it was ok.","location":{"latitude":51.02963467177537,"longitude":5.428001492357648},"category":{"name":"Informal Campsite"}},{"id":239748,"name":"Parking de pêche-Thy le Château ","date_verified":"2023-09-02T00:00:00.000Z","description":"Nice little fisherman parking spot next to the \"Eau d'Heure\" a small river. Place for 3 vans on gravel. Very quiet,  in the middle of the fields and close to a bush. One garbage bin on site. ","location":{"latitude":50.27709846384823,"longitude":4.40707485191524},"category":{"name":"Wild Camping"}},{"id":240513,"name":"E40 southbound near Brussels ","date_verified":"2023-09-07T00:00:00.000Z","description":"A services with toilets, shower, shop and fast food. Camping overnight permitted and it’s quieter on the far side of the services","location":{"latitude":50.879450943368376,"longitude":4.252138221640375},"category":{"name":"Informal Campsite"}},{"id":247713,"name":"Peace Woods","date_verified":"2023-10-26T00:00:00.000Z","description":"Parking.\r\nVery quiet place.\r\nNo facilities, good mobile network.\r\nAccess via narrow paved road.","location":{"latitude":50.02671359989914,"longitude":5.769440794210924},"category":{"name":"Short-term Parking"}},{"id":248438,"name":"Broeltorens parking","date_verified":"2023-11-02T00:00:00.000Z","description":"Official parking with separate section for campers and overlanders - walking distance to city center - charge Euro 15 per night","location":{"latitude":50.83153322125324,"longitude":3.2684100055242693},"category":{"name":"Informal Campsite"}},{"id":248632,"name":"De Bonterie","date_verified":"2023-11-03T00:00:00.000Z","description":"De Bonterie is located on an active dairy farm in Keiem-Diksmuide, a stone's throw from the Belgian coast. You park between the dairy cattle that graze in the nearby. 9 camper pitches with their own electricity and a garden with a beautiful view. There are paved lanes. There is a central discharge point for gray water and a chemical toilet, as well as a water tap and waste collection point. ","location":{"latitude":51.08554899231632,"longitude":2.8941749408868085},"category":{"name":"Established Campground"}},{"id":254354,"name":"Graveyard of the Skull","date_verified":"2023-12-26T00:00:00.000Z","description":"Beautifull old Graveyard.\r\nOriginal Name: Central Cemetery Bruges-Assebroek\r\nThere you can find ta Grave with a stone Skull.\r\nAlso there are toilets and water available.","location":{"latitude":51.19328243192285,"longitude":3.238167492672801},"category":{"name":"Tourist Attraction"}},{"id":254920,"name":"Ypern","date_verified":"2023-12-30T00:00:00.000Z","description":"A lovely hidden parking lot very close to the centre. Free of charge, but some blue lines are still there.\r\nTable, bins \u0026 little lake!","location":{"latitude":50.84697431643909,"longitude":2.880857672533055},"category":{"name":"Wild Camping"}}]